{
  "summary": {
    "1": 4.93,
    "25": 14.07,
    "200": 21.64,
    "750": 33.95,
    "2500": 46.62
  },
  "total": 4136,
  "start": 0,
  "records": [
    {
      "photo_id": "10201275523",
      "gt_lat": 43.649708,
      "gt_lon": -79.365637,
      "pred_country": "Unknown",
      "pred_city": "Toronto, Canada",
      "pred_street": "Toronto, Canada",
      "pred_lat": 43.6534817,
      "pred_lon": -79.3839347,
      "dist_km": 1.5307796947632426,
      "country_posterior": {
        "Unknown": 1.0
      }
    },
    {
      "photo_id": "7289030198",
      "gt_lat": 40.740067,
      "gt_lon": -73.985495,
      "pred_country": "Unknown",
      "pred_city": "Los Angeles",
      "pred_street": "Music Festival in a Major City",
      "pred_lat": 34.0536909,
      "pred_lon": -118.242766,
      "dist_km": 3937.1300202333264,
      "country_posterior": {
        "Unknown": 1.0
      }
    },
    {
      "photo_id": "4572998878",
      "gt_lat": 42.33719,
      "gt_lon": -71.047843,
      "pred_country": "Unknown",
      "pred_city": "New York, USA",
      "pred_street": "Unknown",
      "pred_lat": 40.7127281,
      "pred_lon": -74.0060152,
      "dist_km": 305.37393954362295,
      "country_posterior": {
        "Unknown": 1.0
      }
    },
    {
      "photo_id": "2764520341",
      "gt_lat": 45.439357,
      "gt_lon": 12.333354,
      "pred_country": "Unknown",
      "pred_city": "Venice, Italy",
      "pred_street": "Venice, Italy",
      "pred_lat": 45.4046171,
      "pred_lon": 12.3105232,
      "dist_km": 4.254051763638672,
      "country_posterior": {
        "Unknown": 1.0
      }
    },
    {
      "photo_id": "4224177264",
      "gt_lat": 22.280847,
      "gt_lon": 114.172041,
      "pred_country": "Unknown",
      "pred_city": "Singapore",
      "pred_street": "University of Hong Kong",
      "pred_lat": 54.0855168,
      "pred_lon": 13.3892808,
      "dist_km": 8688.76570802043,
      "country_posterior": {
        "Unknown": 1.0
      }
    },
    {
      "photo_id": "7196543710",
      "gt_lat": -34.885742,
      "gt_lon": 138.604736,
      "pred_country": "Unknown",
      "pred_city": "London, UK",
      "pred_street": "London, UK",
      "pred_lat": 51.5074456,
      "pred_lon": -0.1277653,
      "dist_km": 16261.578583806668,
      "country_posterior": {
        "Unknown": 1.0
      }
    },
    {
      "photo_id": "2578705815",
      "gt_lat": 44.653512,
      "gt_lon": -123.044643,
      "pred_country": "Unknown",
      "pred_city": "United States",
      "pred_street": "Unknown",
      "pred_lat": 39.7837304,
      "pred_lon": -100.445882,
      "dist_km": 1931.0325461575248,
      "country_posterior": {
        "Unknown": 1.0
      }
    },
    {
      "photo_id": "3320208977",
      "gt_lat": 29.819348,
      "gt_lon": -81.325092,
      "pred_country": "Unknown",
      "pred_city": "New Orleans, Louisiana",
      "pred_street": "Florida, USA",
      "pred_lat": 27.7567667,
      "pred_lon": -81.4639835,
      "dist_km": 229.74754609532698,
      "country_posterior": {
        "Unknown": 1.0
      }
    },
    {
      "photo_id": "6148238788",
      "gt_lat": 51.799273,
      "gt_lon": 87.372894,
      "pred_country": "Unknown",
      "pred_city": "Scotland",
      "pred_street": "Scotland",
      "pred_lat": 56.7861112,
      "pred_lon": -4.1140518,
      "dist_km": 5510.615778393862,
      "country_posterior": {
        "Unknown": 1.0
      }
    },
    {
      "photo_id": "9317551405",
      "gt_lat": 38.867205,
      "gt_lon": -77.045595,
      "pred_country": "Argentina",
      "pred_city": "Boston",
      "pred_street": "Buenos Aires",
      "pred_lat": -34.6095579,
      "pred_lon": -58.3887904,
      "dist_km": 8392.913158811658,
      "country_posterior": {
        "Australia": 0.0738,
        "Brazil": 0.2318,
        "South Africa": 0.1405,
        "New Zealand": 0.2131,
        "Argentina": 0.3408
      }
    },
    {
      "photo_id": "2971664261",
      "gt_lat": 48.136709,
      "gt_lon": 11.565341,
      "pred_country": "Unknown",
      "pred_city": "Vienna, Austria",
      "pred_street": "University of Oxford, UK",
      "pred_lat": 51.7525461,
      "pred_lon": -1.2143168,
      "dist_km": 997.2108101746085,
      "country_posterior": {
        "Unknown": 1.0
      }
    },
    {
      "photo_id": "3141231450",
      "gt_lat": 22.432847,
      "gt_lon": 114.118788,
      "pred_country": "Unknown",
      "pred_city": "Florida",
      "pred_street": "Florida",
      "pred_lat": 27.7567667,
      "pred_lon": -81.4639835,
      "dist_km": 14188.77885489108,
      "country_posterior": {
        "Unknown": 1.0
      }
    },
    {
      "photo_id": "3222715183",
      "gt_lat": 52.448235,
      "gt_lon": -1.566066,
      "pred_country": "India",
      "pred_city": "Florida, USA",
      "pred_street": "Delhi",
      "pred_lat": 28.6138954,
      "pred_lon": 77.2090057,
      "dist_km": 6790.033374927276,
      "country_posterior": {
        "Australia": 0.1269,
        "Brazil": 0.1126,
        "South Africa": 0.1473,
        "New Zealand": 0.1085,
        "Indonesia": 0.1038,
        "Malaysia": 0.1405,
        "Thailand": 0.0932,
        "India": 0.1672
      }
    },
    {
      "photo_id": "9047721345",
      "gt_lat": 43.679232,
      "gt_lon": 10.34882,
      "pred_country": "India",
      "pred_city": "Siena, Italy",
      "pred_street": "Old Delhi, India",
      "pred_lat": 28.6590546,
      "pred_lon": 77.2275892,
      "dist_km": 6062.34839400358,
      "country_posterior": {
        "India": 0.2065,
        "Japan": 0.0688,
        "Thailand": 0.0514,
        "Malaysia": 0.1319,
        "Indonesia": 0.058,
        "Vietnam": 0.1496,
        "Myanmar": 0.1473,
        "Sri Lanka": 0.1865
      }
    },
    {
      "photo_id": "8063920174",
      "gt_lat": -8.392478,
      "gt_lon": 115.28424,
      "pred_country": "Unknown",
      "pred_city": "Singapore",
      "pred_street": "Singapore, Elephant World",
      "pred_lat": 1.357107,
      "pred_lon": 103.8194992,
      "dist_km": 1670.4360842867793,
      "country_posterior": {
        "Unknown": 1.0
      }
    },
    {
      "photo_id": "4684204212",
      "gt_lat": 37.782166,
      "gt_lon": -122.401334,
      "pred_country": "New Zealand",
      "pred_city": "Chicago",
      "pred_street": "Auckland",
      "pred_lat": -36.852095,
      "pred_lon": 174.7631803,
      "dist_km": 10509.543902204978,
      "country_posterior": {
        "Australia": 0.0362,
        "Brazil": 0.2351,
        "South Africa": 0.1727,
        "New Zealand": 0.2714,
        "Argentina": 0.1106,
        "Indonesia": 0.0954,
        "Thailand": 0.0786
      }
    },
    {
      "photo_id": "2939073272",
      "gt_lat": 26.103065,
      "gt_lon": -80.15319,
      "pred_country": "New Zealand",
      "pred_city": "Tampa, Florida",
      "pred_street": "Sunshine Cathedral, New Zealand",
      "pred_lat": 27.9449854,
      "pred_lon": -82.4583107,
      "dist_km": 306.7149695115827,
      "country_posterior": {
        "Australia": 0.0836,
        "Brazil": 0.1613,
        "South Africa": 0.1153,
        "New Zealand": 0.2258,
        "India": 0.0995,
        "Indonesia": 0.0929,
        "Malaysia": 0.1391,
        "Thailand": 0.0824
      }
    },
    {
      "photo_id": "7925056016",
      "gt_lat": 50.109166,
      "gt_lon": 8.678833,
      "pred_country": "Indonesia",
      "pred_city": "Berlin, Germany",
      "pred_street": "Jakarta, Indonesia",
      "pred_lat": -6.1754049,
      "pred_lon": 106.827168,
      "dist_km": 11114.710122189173,
      "country_posterior": {
        "Australia": 0.0595,
        "Brazil": 0.1776,
        "South Africa": 0.0715,
        "New Zealand": 0.0425,
        "India": 0.1321,
        "Indonesia": 0.2247,
        "Malaysia": 0.1703,
        "Thailand": 0.1217
      }
    },
    {
      "photo_id": "5955415539",
      "gt_lat": 29.278613,
      "gt_lon": -94.829177,
      "pred_country": "Brazil",
      "pred_city": "Paris",
      "pred_street": "S\u00e3o Paulo",
      "pred_lat": -23.5506507,
      "pred_lon": -46.6333824,
      "dist_km": 7813.618132877728,
      "country_posterior": {
        "Australia": 0.0624,
        "Brazil": 0.1914,
        "South Africa": 0.121,
        "New Zealand": 0.0596,
        "India": 0.1701,
        "Thailand": 0.1236,
        "Japan": 0.148,
        "Malaysia": 0.1238
      }
    },
    {
      "photo_id": "7111005721",
      "gt_lat": 34.989036,
      "gt_lon": 135.76765,
      "pred_country": "Australia",
      "pred_city": "Tokyo, Japan",
      "pred_street": "Sydney, Australia",
      "pred_lat": -33.8698439,
      "pred_lon": 151.2082848,
      "dist_km": 7823.640058250257,
      "country_posterior": {
        "Australia": 0.1811,
        "Brazil": 0.1292,
        "South Africa": 0.149,
        "New Zealand": 0.1178,
        "Argentina": 0.1614,
        "Indonesia": 0.0919,
        "Thailand": 0.0394,
        "Japan": 0.1302
      }
    },
    {
      "photo_id": "4710501494",
      "gt_lat": 4.61497,
      "gt_lon": -74.071176,
      "pred_country": "Brazil",
      "pred_city": "Washington, D.C.",
      "pred_street": "S\u00e3o Paulo, Brazil",
      "pred_lat": -23.5506507,
      "pred_lon": -46.6333824,
      "dist_km": 4319.806995870072,
      "country_posterior": {
        "Australia": 0.0626,
        "Brazil": 0.2422,
        "South Africa": 0.099,
        "New Zealand": 0.2058,
        "Argentina": 0.0823,
        "Indonesia": 0.1813,
        "India": 0.1268
      }
    },
    {
      "photo_id": "5653220171",
      "gt_lat": 58.634969,
      "gt_lon": 16.795778,
      "pred_country": "South Africa",
      "pred_city": "Isle Royale National Park, Michigan",
      "pred_street": "Unknown",
      "pred_lat": 48.0073825,
      "pred_lon": -88.8289875,
      "dist_km": 6366.988036695727,
      "country_posterior": {
        "Australia": 0.1661,
        "South Africa": 0.227,
        "New Zealand": 0.1379,
        "Brazil": 0.1548,
        "Argentina": 0.0994,
        "Indonesia": 0.1048,
        "Malaysia": 0.11
      }
    },
    {
      "photo_id": "10593624805",
      "gt_lat": 48.862173,
      "gt_lon": 2.394075,
      "pred_country": "Unknown",
      "pred_city": "Paris, France",
      "pred_street": "Paris, France",
      "pred_lat": 48.8588897,
      "pred_lon": 2.320041,
      "dist_km": 5.428210994570197,
      "country_posterior": {
        "Unknown": 1.0
      }
    },
    {
      "photo_id": "5377288276",
      "gt_lat": 37.780755,
      "gt_lon": -122.512321,
      "pred_country": "Australia",
      "pred_city": "San Francisco",
      "pred_street": "Sydney, Australia",
      "pred_lat": -33.8698439,
      "pred_lon": 151.2082848,
      "dist_km": 11941.034040134391,
      "country_posterior": {
        "Australia": 0.3522,
        "South Africa": 0.121,
        "New Zealand": 0.1178,
        "Brazil": 0.0981,
        "Argentina": 0.0768,
        "India": 0.1362,
        "Japan": 0.0978
      }
    },
    {
      "photo_id": "10082270546",
      "gt_lat": 47.102264,
      "gt_lon": -1.286945,
      "pred_country": "Unknown",
      "pred_city": "Los Angeles, United States",
      "pred_street": "Music Festival",
      "pred_lat": 26.1088043,
      "pred_lon": -80.1048077,
      "dist_km": 7098.374530575553,
      "country_posterior": {
        "Unknown": 1.0
      }
    },
    {
      "photo_id": "2636860201",
      "gt_lat": 35.659109,
      "gt_lon": 139.754676,
      "pred_country": "Unknown",
      "pred_city": "Tokyo, Japan",
      "pred_street": "Tokyo, Japan",
      "pred_lat": 35.6768601,
      "pred_lon": 139.7638947,
      "dist_km": 2.14231982210859,
      "country_posterior": {
        "Unknown": 1.0
      }
    },
    {
      "photo_id": "8419450931",
      "gt_lat": 52.951165,
      "gt_lon": -1.151944,
      "pred_country": "Unknown",
      "pred_city": "London, United Kingdom",
      "pred_street": "London, United Kingdom",
      "pred_lat": 51.5074456,
      "pred_lon": -0.1277653,
      "dist_km": 175.0292593639331,
      "country_posterior": {
        "Unknown": 1.0
      }
    },
    {
      "photo_id": "5312496877",
      "gt_lat": 39.862783,
      "gt_lon": -4.025134,
      "pred_country": "Unknown",
      "pred_city": "Toledo, Spain",
      "pred_street": "San Silvestre Toledana",
      "pred_lat": 39.8558913,
      "pred_lon": -4.024265,
      "dist_km": 0.7699034304393714,
      "country_posterior": {
        "Unknown": 1.0
      }
    },
    {
      "photo_id": "8253564394",
      "gt_lat": 53.339551,
      "gt_lon": -2.05719,
      "pred_country": "Australia",
      "pred_city": "Wales, UK",
      "pred_street": "Grampians National Park, Victoria, Australia",
      "pred_lat": -37.3479221,
      "pred_lon": 142.290105,
      "dist_km": 16760.543896881638,
      "country_posterior": {
        "Australia": 0.2099,
        "South Africa": 0.0612,
        "New Zealand": 0.1974,
        "Brazil": 0.1575,
        "Argentina": 0.1564,
        "India": 0.117,
        "China": 0.1006
      }
    },
    {
      "photo_id": "4349295488",
      "gt_lat": 51.496619,
      "gt_lon": -0.135778,
      "pred_country": "Unknown",
      "pred_city": "London, UK",
      "pred_street": "London, UK",
      "pred_lat": 51.5074456,
      "pred_lon": -0.1277653,
      "dist_km": 1.3254762769509325,
      "country_posterior": {
        "Unknown": 1.0
      }
    },
    {
      "photo_id": "2397482849",
      "gt_lat": 40.41098,
      "gt_lon": -3.693176,
      "pred_country": "Unknown",
      "pred_city": "Paris",
      "pred_street": "Unknown",
      "pred_lat": 48.8588897,
      "pred_lon": 2.320041,
      "dist_km": 1052.1784044588721,
      "country_posterior": {
        "Unknown": 1.0
      }
    },
    {
      "photo_id": "6789552601",
      "gt_lat": 23.151933,
      "gt_lon": 113.268236,
      "pred_country": "Unknown",
      "pred_city": "Tokyo, Japan",
      "pred_street": "Tokyo, Japan",
      "pred_lat": 35.6768601,
      "pred_lon": 139.7638947,
      "dist_km": 2906.153593639814,
      "country_posterior": {
        "Unknown": 1.0
      }
    },
    {
      "photo_id": "8309889621",
      "gt_lat": 21.977434,
      "gt_lon": 100.754241,
      "pred_country": "Unknown",
      "pred_city": "Singapore",
      "pred_street": "Tropical Rainforest",
      "pred_lat": -27.4793779,
      "pred_lon": 152.9692175,
      "dist_km": 7855.589757527656,
      "country_posterior": {
        "Unknown": 1.0
      }
    },
    {
      "photo_id": "13137609893",
      "gt_lat": 45.502225,
      "gt_lon": -73.560473,
      "pred_country": "Unknown",
      "pred_city": "London, UK",
      "pred_street": "London, United Kingdom",
      "pred_lat": 51.5074456,
      "pred_lon": -0.1277653,
      "dist_km": 5220.360564132961,
      "country_posterior": {
        "Unknown": 1.0
      }
    },
    {
      "photo_id": "7887236728",
      "gt_lat": 34.883636,
      "gt_lon": -76.906099,
      "pred_country": "Unknown",
      "pred_city": "Washington, D.C.",
      "pred_street": "Washington, D.C.",
      "pred_lat": 38.8950982,
      "pred_lon": -77.0363849,
      "dist_km": 446.2045436241926,
      "country_posterior": {
        "Unknown": 1.0
      }
    },
    {
      "photo_id": "8791742443",
      "gt_lat": 39.2835,
      "gt_lon": -76.622334,
      "pred_country": "Unknown",
      "pred_city": "Baltimore, Maryland",
      "pred_street": "Baltimore, Maryland",
      "pred_lat": 39.2908816,
      "pred_lon": -76.610759,
      "dist_km": 1.2907658167785718,
      "country_posterior": {
        "Unknown": 1.0
      }
    },
    {
      "photo_id": "6178090349",
      "gt_lat": 30.286111,
      "gt_lon": -97.741389,
      "pred_country": "Unknown",
      "pred_city": "Paris",
      "pred_street": "Unknown",
      "pred_lat": 48.8588897,
      "pred_lon": 2.320041,
      "dist_km": 8195.875982591595,
      "country_posterior": {
        "Unknown": 1.0
      }
    },
    {
      "photo_id": "5623082341",
      "gt_lat": 37.411993,
      "gt_lon": -122.093081,
      "pred_country": "Unknown",
      "pred_city": "Los Angeles, California",
      "pred_street": "California, USA",
      "pred_lat": 36.7014631,
      "pred_lon": -118.755997,
      "dist_km": 306.464756748087,
      "country_posterior": {
        "Unknown": 1.0
      }
    },
    {
      "photo_id": "5896609884",
      "gt_lat": 52.986968,
      "gt_lon": -2.131905,
      "pred_country": "Unknown",
      "pred_city": "Paris",
      "pred_street": "Unknown",
      "pred_lat": 48.8588897,
      "pred_lon": 2.320041,
      "dist_km": 554.8096557489462,
      "country_posterior": {
        "Unknown": 1.0
      }
    },
    {
      "photo_id": "4732310112",
      "gt_lat": 38.591166,
      "gt_lon": -90.303667,
      "pred_country": "Unknown",
      "pred_city": "Los Angeles",
      "pred_street": "Unknown",
      "pred_lat": 34.0536909,
      "pred_lon": -118.242766,
      "dist_km": 2543.0469584615744,
      "country_posterior": {
        "Unknown": 1.0
      }
    },
    {
      "photo_id": "8676997957",
      "gt_lat": 47.502626,
      "gt_lon": 19.034585,
      "pred_country": "Unknown",
      "pred_city": "Moscow, Russia",
      "pred_street": "Moscow, Russia",
      "pred_lat": 55.625578,
      "pred_lon": 37.6063916,
      "dist_km": 1561.7470991747457,
      "country_posterior": {
        "Unknown": 1.0
      }
    },
    {
      "photo_id": "241248152",
      "gt_lat": 51.12597,
      "gt_lon": -114.041111,
      "pred_country": "Japan",
      "pred_city": "London Heathrow Airport",
      "pred_street": "Osaka International Airport",
      "pred_lat": 34.7909876,
      "pred_lon": 135.4417628,
      "dist_km": 8308.274001463538,
      "country_posterior": {
        "Australia": 0.0347,
        "Brazil": 0.0458,
        "South Africa": 0.0757,
        "New Zealand": 0.0981,
        "Argentina": 0.1231,
        "South Korea": 0.2184,
        "Japan": 0.3141,
        "India": 0.0901
      }
    },
    {
      "photo_id": "2766660672",
      "gt_lat": 55.814798,
      "gt_lon": -4.467315,
      "pred_country": "Japan",
      "pred_city": "Glasgow, Scotland",
      "pred_street": "Scottish Lowlands",
      "pred_lat": 55.861155,
      "pred_lon": -4.2501687,
      "dist_km": 14.505360313959692,
      "country_posterior": {
        "Australia": 0.1052,
        "South Africa": 0.1228,
        "India": 0.1002,
        "Malaysia": 0.0347,
        "Thailand": 0.1767,
        "Indonesia": 0.0824,
        "Japan": 0.2404,
        "South Korea": 0.1375
      }
    },
    {
      "photo_id": "5982428132",
      "gt_lat": 36.160854,
      "gt_lon": -86.777658,
      "pred_country": "Unknown",
      "pred_city": "New York City",
      "pred_street": "Broadway, New York City",
      "pred_lat": 40.8331497,
      "pred_lon": -73.9456863,
      "dist_km": 1230.0131743181723,
      "country_posterior": {
        "Unknown": 1.0
      }
    },
    {
      "photo_id": "8042343438",
      "gt_lat": 37.87807,
      "gt_lon": -122.303199,
      "pred_country": "Unknown",
      "pred_city": "Los Angeles",
      "pred_street": "Outer Banks, North Carolina",
      "pred_lat": 35.5669037,
      "pred_lon": -75.4688367,
      "dist_km": 4138.181656117716,
      "country_posterior": {
        "Unknown": 1.0
      }
    },
    {
      "photo_id": "13323755075",
      "gt_lat": 30.912627,
      "gt_lon": -89.461412,
      "pred_country": "Unknown",
      "pred_city": "Rural area in the United States",
      "pred_street": "Rural Farm Area",
      "pred_lat": null,
      "pred_lon": null,
      "dist_km": Infinity,
      "country_posterior": {
        "Unknown": 1.0
      }
    },
    {
      "photo_id": "4820837489",
      "gt_lat": 31.790846,
      "gt_lon": 35.222307,
      "pred_country": "India",
      "pred_city": "New York City",
      "pred_street": "Mumbai, India",
      "pred_lat": 19.054999,
      "pred_lon": 72.8692035,
      "dist_km": 4012.726823122511,
      "country_posterior": {
        "Australia": 0.0499,
        "Brazil": 0.1143,
        "South Africa": 0.1078,
        "New Zealand": 0.0824,
        "Argentina": 0.2148,
        "Indonesia": 0.092,
        "India": 0.3388
      }
    },
    {
      "photo_id": "5780747158",
      "gt_lat": 23.575666,
      "gt_lon": 119.576166,
      "pred_country": "Brazil",
      "pred_city": "London, UK",
      "pred_street": "Rio de Janeiro",
      "pred_lat": -22.9110137,
      "pred_lon": -43.2093727,
      "dist_km": 18255.785193757765,
      "country_posterior": {
        "Australia": 0.0735,
        "Brazil": 0.2154,
        "South Africa": 0.1667,
        "New Zealand": 0.1977,
        "Indonesia": 0.1124,
        "Malaysia": 0.0428,
        "Thailand": 0.0567,
        "India": 0.1347
      }
    },
    {
      "photo_id": "7506210980",
      "gt_lat": 37.792083,
      "gt_lon": -122.458355,
      "pred_country": "Australia",
      "pred_city": "New York City",
      "pred_street": "Sydney, Australia",
      "pred_lat": -33.8698439,
      "pred_lon": 151.2082848,
      "dist_km": 11945.776830779163,
      "country_posterior": {
        "Australia": 0.2686,
        "Brazil": 0.14,
        "South Africa": 0.1238,
        "New Zealand": 0.1054,
        "Argentina": 0.0956,
        "Indonesia": 0.1089,
        "Malaysia": 0.0866,
        "Thailand": 0.0712
      }
    },
    {
      "photo_id": "8800271528",
      "gt_lat": -37.388879,
      "gt_lon": 175.843777,
      "pred_country": "Unknown",
      "pred_city": "Bingham Canyon Mine, Utah, USA",
      "pred_street": "Goldfield, Victoria, Australia",
      "pred_lat": -37.614326,
      "pred_lon": 144.7056216,
      "dist_km": 2734.2148050920327,
      "country_posterior": {
        "Unknown": 1.0
      }
    },
    {
      "photo_id": "4654689459",
      "gt_lat": -35.324229,
      "gt_lon": -72.415351,
      "pred_country": "Unknown",
      "pred_city": "Los Angeles",
      "pred_street": "Unknown",
      "pred_lat": 34.0536909,
      "pred_lon": -118.242766,
      "dist_km": 9065.921587079918,
      "country_posterior": {
        "Unknown": 1.0
      }
    },
    {
      "photo_id": "4533053129",
      "gt_lat": 38.03621,
      "gt_lon": -78.497228,
      "pred_country": "Unknown",
      "pred_city": "Los Angeles",
      "pred_street": "Unknown",
      "pred_lat": 34.0536909,
      "pred_lon": -118.242766,
      "dist_km": 3573.521391501792,
      "country_posterior": {
        "Unknown": 1.0
      }
    },
    {
      "photo_id": "12759068604",
      "gt_lat": -9.83289,
      "gt_lon": -39.486236,
      "pred_country": "Unknown",
      "pred_city": "Lima, Peru",
      "pred_street": "Carnival in Brazil",
      "pred_lat": -12.0459808,
      "pred_lon": -77.0305912,
      "dist_km": 4103.2253133323375,
      "country_posterior": {
        "Unknown": 1.0
      }
    },
    {
      "photo_id": "2061249534",
      "gt_lat": 29.896019,
      "gt_lon": -81.322174,
      "pred_country": "Unknown",
      "pred_city": "New York City",
      "pred_street": "New York City",
      "pred_lat": 40.7127281,
      "pred_lon": -74.0060152,
      "dist_km": 1372.5623081953547,
      "country_posterior": {
        "Unknown": 1.0
      }
    },
    {
      "photo_id": "2497840790",
      "gt_lat": 42.270703,
      "gt_lon": 8.694305,
      "pred_country": "Unknown",
      "pred_city": "London",
      "pred_street": "Unknown",
      "pred_lat": 51.5074456,
      "pred_lon": -0.1277653,
      "dist_km": 1224.56177859487,
      "country_posterior": {
        "Unknown": 1.0
      }
    },
    {
      "photo_id": "13018413104",
      "gt_lat": 43.428271,
      "gt_lon": -7.363307,
      "pred_country": "Unknown",
      "pred_city": "Cusco, Peru",
      "pred_street": "Cusco, Peru",
      "pred_lat": -13.5170887,
      "pred_lon": -71.9785356,
      "dist_km": 9099.604694496691,
      "country_posterior": {
        "Unknown": 1.0
      }
    },
    {
      "photo_id": "5484482393",
      "gt_lat": 37.909893,
      "gt_lon": -122.389805,
      "pred_country": "Unknown",
      "pred_city": "Deserted Beach",
      "pred_street": "Deserted Coastal Area",
      "pred_lat": null,
      "pred_lon": null,
      "dist_km": Infinity,
      "country_posterior": {
        "Unknown": 1.0
      }
    },
    {
      "photo_id": "6877985988",
      "gt_lat": 46.8846,
      "gt_lon": 14.68048,
      "pred_country": "Unknown",
      "pred_city": "Mountains at Sunset",
      "pred_street": "Mountains at Sunset",
      "pred_lat": 44.5938223,
      "pred_lon": -80.5134907,
      "dist_km": 6901.520941177045,
      "country_posterior": {
        "Unknown": 1.0
      }
    },
    {
      "photo_id": "5703013770",
      "gt_lat": -37.878579,
      "gt_lon": 144.604775,
      "pred_country": "Thailand",
      "pred_city": "Germany",
      "pred_street": "Bangkok",
      "pred_lat": 13.7524938,
      "pred_lon": 100.4935089,
      "dist_km": 7354.390136220582,
      "country_posterior": {
        "Australia": 0.0687,
        "Brazil": 0.0988,
        "South Africa": 0.0922,
        "New Zealand": 0.117,
        "Argentina": 0.1522,
        "Indonesia": 0.0772,
        "Thailand": 0.3002,
        "India": 0.0937
      }
    },
    {
      "photo_id": "7822253820",
      "gt_lat": 59.887903,
      "gt_lon": 29.904785,
      "pred_country": "Russia",
      "pred_city": "Saint Petersburg, Russia",
      "pred_street": "Peterhof Palace, Russia",
      "pred_lat": 59.8845122,
      "pred_lon": 29.9092348,
      "dist_km": 0.4514267560756284,
      "country_posterior": {
        "Russia": 0.8438,
        "France": 0.0213,
        "Italy": 0.0147,
        "Germany": 0.0202,
        "Japan": 0.013,
        "India": 0.0475,
        "China": 0.0234,
        "Australia": 0.016
      }
    },
    {
      "photo_id": "3779988145",
      "gt_lat": 43.351283,
      "gt_lon": -3.012861,
      "pred_country": "Brazil",
      "pred_city": "Barcelona, Spain",
      "pred_street": "S\u00e3o Paulo",
      "pred_lat": -23.5506507,
      "pred_lon": -46.6333824,
      "dist_km": 8670.826835536589,
      "country_posterior": {
        "Australia": 0.1711,
        "Brazil": 0.1749,
        "South Africa": 0.1123,
        "India": 0.1328,
        "Indonesia": 0.1045,
        "Thailand": 0.151,
        "Malaysia": 0.0697,
        "Japan": 0.0838
      }
    },
    {
      "photo_id": "6226079915",
      "gt_lat": 39.808536,
      "gt_lon": -86.412271,
      "pred_country": "Unknown",
      "pred_city": "New England, USA",
      "pred_street": "Northfield, Minnesota",
      "pred_lat": 44.4582041,
      "pred_lon": -93.161159,
      "dist_km": 759.1254007245532,
      "country_posterior": {
        "Unknown": 1.0
      }
    },
    {
      "photo_id": "5365150692",
      "gt_lat": 4.696365,
      "gt_lon": -74.02987,
      "pred_country": "Argentina",
      "pred_city": "Argentina",
      "pred_street": "Buenos Aires, Argentina",
      "pred_lat": -34.6095579,
      "pred_lon": -58.3887904,
      "dist_km": 4667.762312425556,
      "country_posterior": {
        "Argentina": 0.2979,
        "Brazil": 0.26,
        "South Africa": 0.0839,
        "Australia": 0.0796,
        "New Zealand": 0.0784,
        "Indonesia": 0.0695,
        "Malaysia": 0.0722,
        "Thailand": 0.0585
      }
    },
    {
      "photo_id": "4272303739",
      "gt_lat": 37.744099,
      "gt_lon": -122.449407,
      "pred_country": "Unknown",
      "pred_city": "Los Angeles, California",
      "pred_street": "Unknown Graffiti Alley",
      "pred_lat": 34.0536909,
      "pred_lon": -118.242766,
      "dist_km": 558.4016318809838,
      "country_posterior": {
        "Unknown": 1.0
      }
    },
    {
      "photo_id": "3879157630",
      "gt_lat": -29.065,
      "gt_lon": 25.072333,
      "pred_country": "South Africa",
      "pred_city": "Kruger National Park, South Africa",
      "pred_street": "Kruger National Park",
      "pred_lat": -23.9357763,
      "pred_lon": 31.5083741,
      "dist_km": 857.2742913452958,
      "country_posterior": {
        "Kenya": 0.126,
        "Zambia": 0.1332,
        "Namibia": 0.1196,
        "Botswana": 0.1189,
        "South Africa": 0.1507,
        "Ethiopia": 0.1134,
        "Tanzania": 0.1216,
        "Zimbabwe": 0.1166
      }
    },
    {
      "photo_id": "206952130",
      "gt_lat": 40.714638,
      "gt_lon": -74.011416,
      "pred_country": "Unknown",
      "pred_city": "Chicago",
      "pred_street": "Lower East Side, New York City",
      "pred_lat": 40.7159357,
      "pred_lon": -73.9868057,
      "dist_km": 2.0792023313251984,
      "country_posterior": {
        "Unknown": 1.0
      }
    },
    {
      "photo_id": "2760079853",
      "gt_lat": 40.719787,
      "gt_lon": -73.984703,
      "pred_country": "Unknown",
      "pred_city": "Paris, France",
      "pred_street": "Paris, France",
      "pred_lat": 48.8588897,
      "pred_lon": 2.320041,
      "dist_km": 5833.055071910591,
      "country_posterior": {
        "Unknown": 1.0
      }
    },
    {
      "photo_id": "6281827061",
      "gt_lat": 31.821564,
      "gt_lon": 35.202941,
      "pred_country": "Brazil",
      "pred_city": "Miami Beach, Florida",
      "pred_street": "Ilha do Governador, Rio de Janeiro",
      "pred_lat": -22.804841,
      "pred_lon": -43.2199084,
      "dist_km": 10308.209941973093,
      "country_posterior": {
        "Australia": 0.1583,
        "Brazil": 0.1727,
        "South Africa": 0.0832,
        "New Zealand": 0.1471,
        "Argentina": 0.1266,
        "Indonesia": 0.1085,
        "Malaysia": 0.1046,
        "Thailand": 0.0991
      }
    },
    {
      "photo_id": "6575594273",
      "gt_lat": 50.819073,
      "gt_lon": 4.32659,
      "pred_country": "Unknown",
      "pred_city": "London",
      "pred_street": "Unknown",
      "pred_lat": 51.5074456,
      "pred_lon": -0.1277653,
      "dist_km": 319.8415424231504,
      "country_posterior": {
        "Unknown": 1.0
      }
    },
    {
      "photo_id": "3992606427",
      "gt_lat": 54.704391,
      "gt_lon": 20.502204,
      "pred_country": "Australia",
      "pred_city": "London, UK",
      "pred_street": "Sydney, Australia",
      "pred_lat": -33.8698439,
      "pred_lon": 151.2082848,
      "dist_km": 15584.175443398008,
      "country_posterior": {
        "Australia": 0.1628,
        "Brazil": 0.1382,
        "South Africa": 0.1259,
        "New Zealand": 0.1452,
        "India": 0.1307,
        "Japan": 0.117,
        "China": 0.1273,
        "Thailand": 0.053
      }
    },
    {
      "photo_id": "5653121597",
      "gt_lat": -37.82231,
      "gt_lon": 145.033779,
      "pred_country": "Indonesia",
      "pred_city": "Los Angeles, California",
      "pred_street": "Jakarta",
      "pred_lat": -6.1754049,
      "pred_lon": 106.827168,
      "dist_km": 5216.836546655671,
      "country_posterior": {
        "Australia": 0.1007,
        "Brazil": 0.079,
        "South Africa": 0.0984,
        "New Zealand": 0.169,
        "Argentina": 0.0801,
        "Indonesia": 0.2401,
        "Thailand": 0.1427,
        "India": 0.0899
      }
    },
    {
      "photo_id": "7854360534",
      "gt_lat": 43.361489,
      "gt_lon": -76.653869,
      "pred_country": "Unknown",
      "pred_city": "Medieval Festival in Germany",
      "pred_street": "Medieval Festival",
      "pred_lat": null,
      "pred_lon": null,
      "dist_km": Infinity,
      "country_posterior": {
        "Unknown": 1.0
      }
    },
    {
      "photo_id": "2281241280",
      "gt_lat": 42.022924,
      "gt_lon": -88.076394,
      "pred_country": "Unknown",
      "pred_city": "London, UK",
      "pred_street": "Unknown",
      "pred_lat": 51.5074456,
      "pred_lon": -0.1277653,
      "dist_km": 6369.466149594296,
      "country_posterior": {
        "Unknown": 1.0
      }
    },
    {
      "photo_id": "2098314512",
      "gt_lat": 25.09,
      "gt_lon": 121.854343,
      "pred_country": "Unknown",
      "pred_city": "Taipei, Taiwan",
      "pred_street": "Taiwan",
      "pred_lat": 23.9739374,
      "pred_lon": 120.9820179,
      "dist_km": 152.27334814104836,
      "country_posterior": {
        "Unknown": 1.0
      }
    },
    {
      "photo_id": "5573741280",
      "gt_lat": 38.89793,
      "gt_lon": -77.021033,
      "pred_country": "Brazil",
      "pred_city": "Montreal, Canada",
      "pred_street": "Unknown",
      "pred_lat": 45.5031824,
      "pred_lon": -73.5698065,
      "dist_km": 787.365851880686,
      "country_posterior": {
        "Australia": 0.1382,
        "Brazil": 0.1853,
        "Argentina": 0.1783,
        "South Africa": 0.0937,
        "New Zealand": 0.1226,
        "India": 0.1092,
        "Japan": 0.0969,
        "China": 0.0758
      }
    },
    {
      "photo_id": "4256363529",
      "gt_lat": 12.9558,
      "gt_lon": 77.620979,
      "pred_country": "Unknown",
      "pred_city": "London",
      "pred_street": "Unknown",
      "pred_lat": 51.5074456,
      "pred_lon": -0.1277653,
      "dist_km": 8038.332871599145,
      "country_posterior": {
        "Unknown": 1.0
      }
    },
    {
      "photo_id": "4649365193",
      "gt_lat": 47.2744,
      "gt_lon": 12.770883,
      "pred_country": "Unknown",
      "pred_city": "Pinzgau, Austria",
      "pred_street": "Pinzgau, Austria",
      "pred_lat": 47.3591232,
      "pred_lon": 12.7767695,
      "dist_km": 9.431235150945248,
      "country_posterior": {
        "Unknown": 1.0
      }
    },
    {
      "photo_id": "5293335092",
      "gt_lat": -35.038394,
      "gt_lon": 138.516912,
      "pred_country": "Unknown",
      "pred_city": "Los Angeles",
      "pred_street": "Unknown",
      "pred_lat": 34.0536909,
      "pred_lon": -118.242766,
      "dist_km": 13174.443310510862,
      "country_posterior": {
        "Unknown": 1.0
      }
    },
    {
      "photo_id": "8705970673",
      "gt_lat": 45.594176,
      "gt_lon": -122.690978,
      "pred_country": "Unknown",
      "pred_city": "Rally Sweden",
      "pred_street": "Unknown",
      "pred_lat": 57.8513388,
      "pred_lon": 15.4195575,
      "dist_km": 7880.615152803042,
      "country_posterior": {
        "Unknown": 1.0
      }
    },
    {
      "photo_id": "9991199243",
      "gt_lat": 35.104997,
      "gt_lon": -117.795045,
      "pred_country": "Unknown",
      "pred_city": "Yuma, Arizona",
      "pred_street": "White Sands Missile Range, New Mexico",
      "pred_lat": 33.0658459,
      "pred_lon": -106.545628,
      "dist_km": 1059.8654015737443,
      "country_posterior": {
        "Unknown": 1.0
      }
    },
    {
      "photo_id": "8660305609",
      "gt_lat": 51.6346,
      "gt_lon": 0.617948,
      "pred_country": "Unknown",
      "pred_city": "Hampshire, England",
      "pred_street": "Rural Area, United Kingdom",
      "pred_lat": 54.6043336,
      "pred_lon": -5.9822366,
      "dist_km": 550.1197017967904,
      "country_posterior": {
        "Unknown": 1.0
      }
    },
    {
      "photo_id": "6061957690",
      "gt_lat": 44.80024,
      "gt_lon": -93.600792,
      "pred_country": "Unknown",
      "pred_city": "Denver, Colorado",
      "pred_street": "Suburban Neighborhood",
      "pred_lat": 43.6304672,
      "pred_lon": -116.2862234,
      "dist_km": 1806.722816117859,
      "country_posterior": {
        "Unknown": 1.0
      }
    },
    {
      "photo_id": "9352235220",
      "gt_lat": 52.411545,
      "gt_lon": -0.925907,
      "pred_country": "Unknown",
      "pred_city": "Outdoor Event",
      "pred_street": "Circus Tent",
      "pred_lat": -41.4762303,
      "pred_lon": 145.2009081,
      "dist_km": 17204.70291140551,
      "country_posterior": {
        "Unknown": 1.0
      }
    },
    {
      "photo_id": "7927019126",
      "gt_lat": 50.896699,
      "gt_lon": -114.063481,
      "pred_country": "Unknown",
      "pred_city": "Montreal, Canada",
      "pred_street": "Booster Juice",
      "pred_lat": 45.3384762,
      "pred_lon": -75.7144768,
      "dist_km": 2878.676492702558,
      "country_posterior": {
        "Unknown": 1.0
      }
    },
    {
      "photo_id": "5640596723",
      "gt_lat": 50.043746,
      "gt_lon": 8.045468,
      "pred_country": "Unknown",
      "pred_city": "Los Angeles",
      "pred_street": "Unknown",
      "pred_lat": 34.0536909,
      "pred_lon": -118.242766,
      "dist_km": 9277.5512371658,
      "country_posterior": {
        "Unknown": 1.0
      }
    },
    {
      "photo_id": "4151523612",
      "gt_lat": 51.517849,
      "gt_lon": 7.335036,
      "pred_country": "Unknown",
      "pred_city": "Berlin, Germany",
      "pred_street": "Industrial District, Europe",
      "pred_lat": 54.9669888,
      "pred_lon": -1.6931391,
      "dist_km": 711.9181231019305,
      "country_posterior": {
        "Unknown": 1.0
      }
    },
    {
      "photo_id": "9177350502",
      "gt_lat": 37.795427,
      "gt_lon": -122.393628,
      "pred_country": "Unknown",
      "pred_city": "London, UK",
      "pred_street": "London, UK",
      "pred_lat": 51.5074456,
      "pred_lon": -0.1277653,
      "dist_km": 8613.285140657332,
      "country_posterior": {
        "Unknown": 1.0
      }
    },
    {
      "photo_id": "5131621775",
      "gt_lat": 45.880448,
      "gt_lon": 6.888084,
      "pred_country": "Switzerland",
      "pred_city": "Mont Blanc",
      "pred_street": "Mont Blanc",
      "pred_lat": 45.8327056,
      "pred_lon": 6.8651706,
      "dist_km": 5.597425663233369,
      "country_posterior": {
        "Switzerland": 0.6178,
        "Alaska": 0.0507,
        "New Zealand": 0.0401,
        "Australia": 0.041,
        "Argentina": 0.0357,
        "South Africa": 0.0478,
        "Japan": 0.0837,
        "China": 0.0833
      }
    },
    {
      "photo_id": "8555460190",
      "gt_lat": 41.564279,
      "gt_lon": 2.254836,
      "pred_country": "Unknown",
      "pred_city": "London",
      "pred_street": "Unknown",
      "pred_lat": 51.5074456,
      "pred_lon": -0.1277653,
      "dist_km": 1120.386624168655,
      "country_posterior": {
        "Unknown": 1.0
      }
    },
    {
      "photo_id": "2392139318",
      "gt_lat": 44.432308,
      "gt_lon": 8.745632,
      "pred_country": "Unknown",
      "pred_city": "Genoa, Italy",
      "pred_street": "Portofino, Italy",
      "pred_lat": 44.303253,
      "pred_lon": 9.2095582,
      "dist_km": 39.57089427491578,
      "country_posterior": {
        "Unknown": 1.0
      }
    },
    {
      "photo_id": "5571756165",
      "gt_lat": 45.575525,
      "gt_lon": 10.005261,
      "pred_country": "Unknown",
      "pred_city": "London, UK",
      "pred_street": "Unknown",
      "pred_lat": 51.5074456,
      "pred_lon": -0.1277653,
      "dist_km": 994.1573888516006,
      "country_posterior": {
        "Unknown": 1.0
      }
    },
    {
      "photo_id": "5224241287",
      "gt_lat": 53.367458,
      "gt_lon": 13.058144,
      "pred_country": "Unknown",
      "pred_city": "Berlin, Germany",
      "pred_street": "Germany",
      "pred_lat": 51.1638175,
      "pred_lon": 10.4478313,
      "dist_km": 302.60385929139284,
      "country_posterior": {
        "Unknown": 1.0
      }
    },
    {
      "photo_id": "5917860223",
      "gt_lat": -1.200426,
      "gt_lon": 35.096855,
      "pred_country": "Unknown",
      "pred_city": "Nairobi, Kenya",
      "pred_street": "Savannah, Africa",
      "pred_lat": -1.2890006,
      "pred_lon": 36.8172812,
      "dist_km": 191.51092866318282,
      "country_posterior": {
        "Unknown": 1.0
      }
    },
    {
      "photo_id": "5602061140",
      "gt_lat": 38.88993,
      "gt_lon": -77.009139,
      "pred_country": "United States",
      "pred_city": "Washington, D.C.",
      "pred_street": "Washington, D.C.",
      "pred_lat": 38.8950982,
      "pred_lon": -77.0363849,
      "dist_km": 2.427036415542176,
      "country_posterior": {
        "United States": 0.5391,
        "United Kingdom": 0.0982,
        "Australia": 0.0746,
        "India": 0.0718,
        "Japan": 0.0771,
        "South Africa": 0.0438,
        "Brazil": 0.0533,
        "Argentina": 0.0421
      }
    },
    {
      "photo_id": "5543245769",
      "gt_lat": 24.696563,
      "gt_lon": 121.765966,
      "pred_country": "Unknown",
      "pred_city": "Taipei, Taiwan",
      "pred_street": "Taiwan",
      "pred_lat": 23.9739374,
      "pred_lon": 120.9820179,
      "dist_km": 112.9814750713939,
      "country_posterior": {
        "Unknown": 1.0
      }
    },
    {
      "photo_id": "158078339",
      "gt_lat": 51.729898,
      "gt_lon": -1.206521,
      "pred_country": "Unknown",
      "pred_city": "London",
      "pred_street": "Unknown",
      "pred_lat": 51.5074456,
      "pred_lon": -0.1277653,
      "dist_km": 78.47667118559383,
      "country_posterior": {
        "Unknown": 1.0
      }
    },
    {
      "photo_id": "13069300583",
      "gt_lat": 50.880277,
      "gt_lon": 4.717877,
      "pred_country": "Unknown",
      "pred_city": "Berlin, Germany",
      "pred_street": "Berlin, Germany",
      "pred_lat": 52.5173885,
      "pred_lon": 13.3951309,
      "dist_km": 624.6622589207594,
      "country_posterior": {
        "Unknown": 1.0
      }
    },
    {
      "photo_id": "5568746908",
      "gt_lat": -31.633311,
      "gt_lon": -60.679492,
      "pred_country": "Australia",
      "pred_city": "Bangkok, Thailand",
      "pred_street": "Sydney, Australia",
      "pred_lat": -33.8698439,
      "pred_lon": 151.2082848,
      "dist_km": 12001.93760496191,
      "country_posterior": {
        "Brazil": 0.0914,
        "South Africa": 0.1251,
        "Australia": 0.2681,
        "India": 0.0817,
        "Indonesia": 0.1063,
        "Thailand": 0.1878,
        "Malaysia": 0.0566,
        "Vietnam": 0.083
      }
    },
    {
      "photo_id": "6816649516",
      "gt_lat": 8.682851,
      "gt_lon": -83.49266,
      "pred_country": "Unknown",
      "pred_city": "Malaysia",
      "pred_street": "Tropical Rainforest",
      "pred_lat": -27.4793779,
      "pred_lon": 152.9692175,
      "dist_km": 13749.878180802203,
      "country_posterior": {
        "Unknown": 1.0
      }
    },
    {
      "photo_id": "5423842789",
      "gt_lat": 58.336616,
      "gt_lon": 26.310969,
      "pred_country": "Unknown",
      "pred_city": "Vienna, Austria",
      "pred_street": "Unknown",
      "pred_lat": 48.2083537,
      "pred_lon": 16.3725042,
      "dist_km": 1302.7334819525754,
      "country_posterior": {
        "Unknown": 1.0
      }
    },
    {
      "photo_id": "5343703091",
      "gt_lat": 59.433357,
      "gt_lon": 24.744043,
      "pred_country": "Brazil",
      "pred_city": "Prague, Czech Republic",
      "pred_street": "S\u00e3o Paulo",
      "pred_lat": -23.5506507,
      "pred_lon": -46.6333824,
      "dist_km": 11258.9960572277,
      "country_posterior": {
        "Australia": 0.0957,
        "Brazil": 0.5176,
        "South Africa": 0.0641,
        "India": 0.08,
        "Thailand": 0.0757,
        "Malaysia": 0.0667,
        "Indonesia": 0.0552,
        "Japan": 0.0451
      }
    },
    {
      "photo_id": "5727544850",
      "gt_lat": 51.503834,
      "gt_lon": -0.097954,
      "pred_country": "Thailand",
      "pred_city": "London, UK",
      "pred_street": "Bangkok",
      "pred_lat": 13.7524938,
      "pred_lon": 100.4935089,
      "dist_km": 9529.740281902028,
      "country_posterior": {
        "Australia": 0.0885,
        "Brazil": 0.1461,
        "South Africa": 0.103,
        "New Zealand": 0.0972,
        "India": 0.1157,
        "Indonesia": 0.1312,
        "Thailand": 0.2188,
        "Japan": 0.0995
      }
    },
    {
      "photo_id": "2627541699",
      "gt_lat": 33.525368,
      "gt_lon": 36.304664,
      "pred_country": "Unknown",
      "pred_city": "Amman, Jordan",
      "pred_street": "Amman Citadel, Jordan",
      "pred_lat": 31.9544825,
      "pred_lon": 35.936707,
      "dist_km": 178.03202642399768,
      "country_posterior": {
        "Unknown": 1.0
      }
    },
    {
      "photo_id": "5595998892",
      "gt_lat": 25.721044,
      "gt_lon": 32.600212,
      "pred_country": "Egypt",
      "pred_city": "Luxor, Egypt",
      "pred_street": "Luxor Temple",
      "pred_lat": 25.699525,
      "pred_lon": 32.6390695,
      "dist_km": 4.569567240424872,
      "country_posterior": {
        "Egypt": 0.6188,
        "Jordan": 0.0728,
        "Libya": 0.0429,
        "Morocco": 0.0631,
        "Saudi Arabia": 0.0554,
        "Syria": 0.0452,
        "Yemen": 0.0624,
        "Iraq": 0.0395
      }
    },
    {
      "photo_id": "5219647169",
      "gt_lat": -33.091038,
      "gt_lon": 115.87778,
      "pred_country": "Unknown",
      "pred_city": "Harvey, Western Australia",
      "pred_street": "Harvey, Western Australia",
      "pred_lat": -33.15052,
      "pred_lon": 115.9169603,
      "dist_km": 7.553800421234769,
      "country_posterior": {
        "Unknown": 1.0
      }
    },
    {
      "photo_id": "7808421746",
      "gt_lat": 15.974209,
      "gt_lon": 107.868041,
      "pred_country": "Vietnam",
      "pred_city": "Hoi An, Vietnam",
      "pred_street": "Hoi An, Vietnam",
      "pred_lat": 15.8880397,
      "pred_lon": 108.3367883,
      "dist_km": 51.02805369575003,
      "country_posterior": {
        "Vietnam": 0.5707,
        "Thailand": 0.0636,
        "Indonesia": 0.0753,
        "Myanmar": 0.0509,
        "Cambodia": 0.0563,
        "Laos": 0.066,
        "Malaysia": 0.0638,
        "Singapore": 0.0535
      }
    },
    {
      "photo_id": "3590761156",
      "gt_lat": 39.453152,
      "gt_lon": -0.347281,
      "pred_country": "Unknown",
      "pred_city": "Sydney, Australia",
      "pred_street": "Aquarium of the Pacific, Long Beach, California",
      "pred_lat": 33.7620134,
      "pred_lon": -118.1970174,
      "dist_km": 9668.0098967218,
      "country_posterior": {
        "Unknown": 1.0
      }
    },
    {
      "photo_id": "4366063513",
      "gt_lat": 49.27494,
      "gt_lon": -123.122741,
      "pred_country": "Unknown",
      "pred_city": "New York City",
      "pred_street": "New York City",
      "pred_lat": 40.7127281,
      "pred_lon": -74.0060152,
      "dist_km": 3904.5683426707765,
      "country_posterior": {
        "Unknown": 1.0
      }
    },
    {
      "photo_id": "4737205492",
      "gt_lat": 42.035619,
      "gt_lon": -72.614006,
      "pred_country": "Unknown",
      "pred_city": "Six Flags Magic Mountain",
      "pred_street": "Six Flags Magic Mountain",
      "pred_lat": 34.4250568,
      "pred_lon": -118.5970454,
      "dist_km": 4054.3651635899178,
      "country_posterior": {
        "Unknown": 1.0
      }
    },
    {
      "photo_id": "9901727943",
      "gt_lat": 40.433794,
      "gt_lon": -3.710667,
      "pred_country": "Unknown",
      "pred_city": "Madrid, Spain",
      "pred_street": "Madrid, Spain",
      "pred_lat": 40.416782,
      "pred_lon": -3.703507,
      "dist_km": 1.9863684692495673,
      "country_posterior": {
        "Unknown": 1.0
      }
    },
    {
      "photo_id": "3802854057",
      "gt_lat": -23.552526,
      "gt_lon": -46.658619,
      "pred_country": "Unknown",
      "pred_city": "Rio de Janeiro, Brazil",
      "pred_street": "S\u00e3o Paulo, Brazil",
      "pred_lat": -23.5506507,
      "pred_lon": -46.6333824,
      "dist_km": 2.5808665690341916,
      "country_posterior": {
        "Unknown": 1.0
      }
    },
    {
      "photo_id": "5082201444",
      "gt_lat": 36.127615,
      "gt_lon": -5.370984,
      "pred_country": "Thailand",
      "pred_city": "Mallorca, Spain",
      "pred_street": "Phuket, Thailand",
      "pred_lat": 7.9366015,
      "pred_lon": 98.3529292,
      "dist_km": 10699.386158750272,
      "country_posterior": {
        "Australia": 0.1164,
        "Brazil": 0.1344,
        "South Africa": 0.1286,
        "New Zealand": 0.1259,
        "Argentina": 0.1118,
        "Indonesia": 0.101,
        "Malaysia": 0.0737,
        "Thailand": 0.2082
      }
    },
    {
      "photo_id": "6033697647",
      "gt_lat": 25.025655,
      "gt_lon": 121.529608,
      "pred_country": "Unknown",
      "pred_city": "New York City",
      "pred_street": "Unknown",
      "pred_lat": 40.7127281,
      "pred_lon": -74.0060152,
      "dist_km": 12531.003797877158,
      "country_posterior": {
        "Unknown": 1.0
      }
    },
    {
      "photo_id": "7506510930",
      "gt_lat": 37.421844,
      "gt_lon": -122.115011,
      "pred_country": "Unknown",
      "pred_city": "Los Angeles",
      "pred_street": "Disneyland, Anaheim",
      "pred_lat": 33.8136512,
      "pred_lon": -117.9197351,
      "dist_km": 551.940621292326,
      "country_posterior": {
        "Unknown": 1.0
      }
    },
    {
      "photo_id": "7978703060",
      "gt_lat": -38.479344,
      "gt_lon": 145.947854,
      "pred_country": "Unknown",
      "pred_city": "Sydney, Australia",
      "pred_street": "Unknown",
      "pred_lat": -33.8698439,
      "pred_lon": 151.2082848,
      "dist_km": 696.6263228875035,
      "country_posterior": {
        "Unknown": 1.0
      }
    },
    {
      "photo_id": "3539325016",
      "gt_lat": 52.071994,
      "gt_lon": 17.008238,
      "pred_country": "Unknown",
      "pred_city": "London",
      "pred_street": "Unknown",
      "pred_lat": 51.5074456,
      "pred_lon": -0.1277653,
      "dist_km": 1177.5338307668046,
      "country_posterior": {
        "Unknown": 1.0
      }
    },
    {
      "photo_id": "8494535977",
      "gt_lat": 21.19468,
      "gt_lon": 94.896463,
      "pred_country": "Unknown",
      "pred_city": "Cappadocia, Turkey",
      "pred_street": "Cappadocia, Turkey",
      "pred_lat": 38.6386124,
      "pred_lon": 34.8455184,
      "dist_km": 5992.44953235801,
      "country_posterior": {
        "Unknown": 1.0
      }
    },
    {
      "photo_id": "2708830005",
      "gt_lat": 38.889333,
      "gt_lon": -77.0915,
      "pred_country": "Unknown",
      "pred_city": "United States",
      "pred_street": "Backyard Party",
      "pred_lat": 39.7837304,
      "pred_lon": -100.445882,
      "dist_km": 2005.2958258635504,
      "country_posterior": {
        "Unknown": 1.0
      }
    },
    {
      "photo_id": "6893776298",
      "gt_lat": -0.543079,
      "gt_lon": -77.88208,
      "pred_country": "Unknown",
      "pred_city": "Costa Rica",
      "pred_street": "Costa Rica",
      "pred_lat": 10.2735633,
      "pred_lon": -84.0739102,
      "dist_km": 1384.1283704361294,
      "country_posterior": {
        "Unknown": 1.0
      }
    },
    {
      "photo_id": "2292797583",
      "gt_lat": 42.14495,
      "gt_lon": 2.236061,
      "pred_country": "India",
      "pred_city": "Forest of Dean, Gloucestershire, UK",
      "pred_street": "Western Ghats, India",
      "pred_lat": 10.166,
      "pred_lon": 77.058,
      "dist_km": 8002.719389141486,
      "country_posterior": {
        "Australia": 0.0979,
        "New Zealand": 0.1539,
        "South Africa": 0.1002,
        "Brazil": 0.1113,
        "Argentina": 0.1028,
        "India": 0.2576,
        "Japan": 0.0848,
        "China": 0.0916
      }
    },
    {
      "photo_id": "12420828",
      "gt_lat": 46.237654,
      "gt_lon": 6.048831,
      "pred_country": "China",
      "pred_city": "CERN (European Organization for Nuclear Research)",
      "pred_street": "Guangzhou, China",
      "pred_lat": 23.1288429,
      "pred_lon": 113.2589581,
      "dist_km": 9398.272573229851,
      "country_posterior": {
        "Australia": 0.2167,
        "Brazil": 0.0849,
        "South Africa": 0.0838,
        "India": 0.0363,
        "China": 0.2707,
        "Japan": 0.1039,
        "Thailand": 0.1547,
        "Indonesia": 0.0489
      }
    },
    {
      "photo_id": "1732276605",
      "gt_lat": 32.735321,
      "gt_lon": -117.148956,
      "pred_country": "China",
      "pred_city": "Chengdu, China",
      "pred_street": "Chengdu, Sichuan, China",
      "pred_lat": 30.659867,
      "pred_lon": 104.063315,
      "dist_km": 11739.951253337536,
      "country_posterior": {
        "China": 0.6284,
        "Japan": 0.0404,
        "South Korea": 0.0605,
        "Vietnam": 0.0635,
        "Thailand": 0.0333,
        "India": 0.0597,
        "Australia": 0.0507,
        "Brazil": 0.0636
      }
    },
    {
      "photo_id": "3712962511",
      "gt_lat": 40.272584,
      "gt_lon": -2.797908,
      "pred_country": "Unknown",
      "pred_city": "Mountains of Spain",
      "pred_street": "Mountainside in a rural area",
      "pred_lat": 43.2000527,
      "pred_lon": -4.8479957,
      "dist_km": 367.25569797708874,
      "country_posterior": {
        "Unknown": 1.0
      }
    },
    {
      "photo_id": "8123140597",
      "gt_lat": 31.227333,
      "gt_lon": 121.48918,
      "pred_country": "Unknown",
      "pred_city": "Shanghai, China",
      "pred_street": "Shanghai, China",
      "pred_lat": 31.2312707,
      "pred_lon": 121.4700152,
      "dist_km": 1.874106791669443,
      "country_posterior": {
        "Unknown": 1.0
      }
    },
    {
      "photo_id": "9580401173",
      "gt_lat": 52.528666,
      "gt_lon": 13.374166,
      "pred_country": "Unknown",
      "pred_city": "New York",
      "pred_street": "New York",
      "pred_lat": 40.7127281,
      "pred_lon": -74.0060152,
      "dist_km": 6382.71272141737,
      "country_posterior": {
        "Unknown": 1.0
      }
    },
    {
      "photo_id": "3017502331",
      "gt_lat": 37.93516,
      "gt_lon": -122.639265,
      "pred_country": "Australia",
      "pred_city": "Algonquin Provincial Park, Canada",
      "pred_street": "Rainforests of Queensland, Australia",
      "pred_lat": -32.10217,
      "pred_lon": 151.5661515,
      "dist_km": 11800.421531872018,
      "country_posterior": {
        "Australia": 0.1718,
        "Brazil": 0.0606,
        "South Africa": 0.1588,
        "New Zealand": 0.1624,
        "Indonesia": 0.0481,
        "Malaysia": 0.1196,
        "Thailand": 0.1546,
        "India": 0.1242
      }
    },
    {
      "photo_id": "3740106362",
      "gt_lat": 35.193117,
      "gt_lon": -80.828561,
      "pred_country": "India",
      "pred_city": "Washington, D.C.",
      "pred_street": "New Delhi, India",
      "pred_lat": 28.6138954,
      "pred_lon": 77.2090057,
      "dist_km": 12555.355968034468,
      "country_posterior": {
        "Australia": 0.0679,
        "Brazil": 0.0996,
        "South Africa": 0.1295,
        "India": 0.3536,
        "Japan": 0.1224,
        "Thailand": 0.0646,
        "Malaysia": 0.0738,
        "Singapore": 0.0886
      }
    },
    {
      "photo_id": "5726166691",
      "gt_lat": 5.317543,
      "gt_lon": 37.449474,
      "pred_country": "Unknown",
      "pred_city": "Kenya",
      "pred_street": "Unknown",
      "pred_lat": 1.4419683,
      "pred_lon": 38.4313975,
      "dist_km": 444.5090272788929,
      "country_posterior": {
        "Unknown": 1.0
      }
    },
    {
      "photo_id": "9613242707",
      "gt_lat": 43.288335,
      "gt_lon": -1.838386,
      "pred_country": "Brazil",
      "pred_city": "Boston",
      "pred_street": "Amazonas, Brazil",
      "pred_lat": -3.3260273,
      "pred_lon": -60.6439924,
      "dist_km": 7820.345066371769,
      "country_posterior": {
        "Australia": 0.0624,
        "Brazil": 0.1766,
        "South Africa": 0.1302,
        "New Zealand": 0.1745,
        "India": 0.0761,
        "Indonesia": 0.1354,
        "Thailand": 0.1197,
        "Japan": 0.1251
      }
    },
    {
      "photo_id": "3836478860",
      "gt_lat": 42.733608,
      "gt_lon": -84.547943,
      "pred_country": "Unknown",
      "pred_city": "Los Angeles",
      "pred_street": "Electronic Music Festival",
      "pred_lat": 34.0536909,
      "pred_lon": -118.242766,
      "dist_km": 3067.490125393858,
      "country_posterior": {
        "Unknown": 1.0
      }
    },
    {
      "photo_id": "9253646781",
      "gt_lat": 48.973,
      "gt_lon": 2.515,
      "pred_country": "Unknown",
      "pred_city": "London",
      "pred_street": "Unknown",
      "pred_lat": 51.5074456,
      "pred_lon": -0.1277653,
      "dist_km": 338.68888230696984,
      "country_posterior": {
        "Unknown": 1.0
      }
    },
    {
      "photo_id": "13979394872",
      "gt_lat": 24.123833,
      "gt_lon": 120.492333,
      "pred_country": "Malaysia",
      "pred_city": "Singapore",
      "pred_street": "Penang",
      "pred_lat": 5.4065013,
      "pred_lon": 100.2559077,
      "dist_km": 3001.959777021161,
      "country_posterior": {
        "Australia": 0.0684,
        "Brazil": 0.134,
        "South Africa": 0.0875,
        "New Zealand": 0.1483,
        "India": 0.0804,
        "Indonesia": 0.0861,
        "Thailand": 0.1567,
        "Malaysia": 0.2387
      }
    },
    {
      "photo_id": "5947183906",
      "gt_lat": 48.004933,
      "gt_lon": 7.63436,
      "pred_country": "Unknown",
      "pred_city": "Beach in a temperate climate, possibly in the United States",
      "pred_street": "Beachside Park, Los Angeles",
      "pred_lat": null,
      "pred_lon": null,
      "dist_km": Infinity,
      "country_posterior": {
        "Unknown": 1.0
      }
    },
    {
      "photo_id": "6093950239",
      "gt_lat": 41.158826,
      "gt_lon": -8.630822,
      "pred_country": "Brazil",
      "pred_city": "Berlin, Germany",
      "pred_street": "S\u00e3o Paulo, Brazil",
      "pred_lat": -23.5506507,
      "pred_lon": -46.6333824,
      "dist_km": 8193.65665647109,
      "country_posterior": {
        "Australia": 0.1174,
        "Brazil": 0.2499,
        "South Africa": 0.0958,
        "New Zealand": 0.1981,
        "Argentina": 0.1502,
        "Indonesia": 0.0869,
        "Malaysia": 0.1016
      }
    },
    {
      "photo_id": "11439370863",
      "gt_lat": 43.720063,
      "gt_lon": 7.275234,
      "pred_country": "Unknown",
      "pred_city": "N\u00eemes, France",
      "pred_street": "Arles Amphitheatre, France",
      "pred_lat": 43.6777552,
      "pred_lon": 4.6313862,
      "dist_km": 212.58656878903597,
      "country_posterior": {
        "Unknown": 1.0
      }
    },
    {
      "photo_id": "3701992276",
      "gt_lat": 32.787166,
      "gt_lon": -96.772212,
      "pred_country": "Unknown",
      "pred_city": "Los Angeles, California",
      "pred_street": "Urban Residential Area",
      "pred_lat": 25.8724631,
      "pred_lon": 85.7896089,
      "dist_km": 13486.795956367274,
      "country_posterior": {
        "Unknown": 1.0
      }
    },
    {
      "photo_id": "174030514",
      "gt_lat": -37.949003,
      "gt_lon": 145.533485,
      "pred_country": "Unknown",
      "pred_city": "London, UK",
      "pred_street": "Unknown",
      "pred_lat": 51.5074456,
      "pred_lon": -0.1277653,
      "dist_km": 16951.447409015884,
      "country_posterior": {
        "Unknown": 1.0
      }
    },
    {
      "photo_id": "4236605634",
      "gt_lat": 10.100326,
      "gt_lon": 99.826412,
      "pred_country": "Unknown",
      "pred_city": "Maldives",
      "pred_street": "Maldives",
      "pred_lat": 3.7203503,
      "pred_lon": 73.2244152,
      "dist_km": 3019.0711089399056,
      "country_posterior": {
        "Unknown": 1.0
      }
    },
    {
      "photo_id": "230701555",
      "gt_lat": 42.341853,
      "gt_lon": -85.150501,
      "pred_country": "Australia",
      "pred_city": "New York City",
      "pred_street": "Sydney, Australia",
      "pred_lat": -33.8698439,
      "pred_lon": 151.2082848,
      "dist_km": 15086.17897443402,
      "country_posterior": {
        "Australia": 0.2477,
        "Brazil": 0.1552,
        "South Africa": 0.0499,
        "New Zealand": 0.1901,
        "Argentina": 0.0408,
        "Indonesia": 0.0669,
        "Malaysia": 0.129,
        "Thailand": 0.1204
      }
    },
    {
      "photo_id": "5883754368",
      "gt_lat": 33.895866,
      "gt_lon": -118.317083,
      "pred_country": "Australia",
      "pred_city": "Los Angeles",
      "pred_street": "Melbourne, Victoria, Australia",
      "pred_lat": -37.8142454,
      "pred_lon": 144.9631732,
      "dist_km": 12759.544387873308,
      "country_posterior": {
        "Australia": 0.2706,
        "Brazil": 0.0824,
        "South Africa": 0.1749,
        "New Zealand": 0.2292,
        "Argentina": 0.0951,
        "Indonesia": 0.0282,
        "Malaysia": 0.0717,
        "Thailand": 0.0479
      }
    },
    {
      "photo_id": "4844697532",
      "gt_lat": 53.342231,
      "gt_lon": -1.541948,
      "pred_country": "Unknown",
      "pred_city": "London, UK",
      "pred_street": "Unknown",
      "pred_lat": 51.5074456,
      "pred_lon": -0.1277653,
      "dist_km": 225.41906967957124,
      "country_posterior": {
        "Unknown": 1.0
      }
    },
    {
      "photo_id": "7165555849",
      "gt_lat": 60.133822,
      "gt_lon": 24.510304,
      "pred_country": "Unknown",
      "pred_city": "Oslo, Norway",
      "pred_street": "Unknown",
      "pred_lat": 59.9133301,
      "pred_lon": 10.7389701,
      "dist_km": 764.1110338152514,
      "country_posterior": {
        "Unknown": 1.0
      }
    },
    {
      "photo_id": "1706121860",
      "gt_lat": 36.174946,
      "gt_lon": -86.773688,
      "pred_country": "Unknown",
      "pred_city": "New York City",
      "pred_street": "Unknown",
      "pred_lat": 40.7127281,
      "pred_lon": -74.0060152,
      "dist_km": 1219.486279388926,
      "country_posterior": {
        "Unknown": 1.0
      }
    },
    {
      "photo_id": "4689929266",
      "gt_lat": 40.224269,
      "gt_lon": 116.422523,
      "pred_country": "Unknown",
      "pred_city": "Beijing, China",
      "pred_street": "Beijing, China",
      "pred_lat": 39.9057136,
      "pred_lon": 116.3912972,
      "dist_km": 35.5212766659253,
      "country_posterior": {
        "Unknown": 1.0
      }
    },
    {
      "photo_id": "5795908807",
      "gt_lat": 29.935895,
      "gt_lon": -7.270202,
      "pred_country": "Unknown",
      "pred_city": "Paris",
      "pred_street": "Unknown",
      "pred_lat": 48.8588897,
      "pred_lon": 2.320041,
      "dist_km": 2255.4507923364695,
      "country_posterior": {
        "Unknown": 1.0
      }
    },
    {
      "photo_id": "7983462902",
      "gt_lat": 40.748472,
      "gt_lon": -73.9857,
      "pred_country": "China",
      "pred_city": "New York City",
      "pred_street": "New York City, USA",
      "pred_lat": 40.7127281,
      "pred_lon": -74.0060152,
      "dist_km": 4.327496335275747,
      "country_posterior": {
        "Australia": 0.1873,
        "Brazil": 0.1323,
        "South Africa": 0.0482,
        "New Zealand": 0.1559,
        "India": 0.1106,
        "Japan": 0.0779,
        "China": 0.2287,
        "Indonesia": 0.0592
      }
    },
    {
      "photo_id": "7994520914",
      "gt_lat": 51.496833,
      "gt_lon": -0.210667,
      "pred_country": "South Africa",
      "pred_city": "Comic-Con International (San Diego)",
      "pred_street": "Cape Town",
      "pred_lat": -33.9288301,
      "pred_lon": 18.4172197,
      "dist_km": 9671.68925112054,
      "country_posterior": {
        "Australia": 0.0366,
        "Brazil": 0.1462,
        "South Africa": 0.2132,
        "New Zealand": 0.1224,
        "Argentina": 0.1717,
        "Indonesia": 0.1287,
        "Thailand": 0.0711,
        "India": 0.1101
      }
    },
    {
      "photo_id": "3844614093",
      "gt_lat": 42.762137,
      "gt_lon": -7.23587,
      "pred_country": "Unknown",
      "pred_city": "Mountains of the Alps",
      "pred_street": "Rocky Hillside",
      "pred_lat": -33.6968972,
      "pred_lon": 19.0073598,
      "dist_km": 8911.559626106604,
      "country_posterior": {
        "Unknown": 1.0
      }
    },
    {
      "photo_id": "5381502622",
      "gt_lat": 43.297333,
      "gt_lon": -87.988,
      "pred_country": "Japan",
      "pred_city": "Charleston, South Carolina",
      "pred_street": "Japan",
      "pred_lat": 36.5748441,
      "pred_lon": 139.2394179,
      "dist_km": 9932.859783518314,
      "country_posterior": {
        "Australia": 0.0278,
        "Brazil": 0.1719,
        "South Africa": 0.1436,
        "New Zealand": 0.0645,
        "India": 0.1019,
        "Japan": 0.2167,
        "China": 0.0693,
        "Thailand": 0.2044
      }
    },
    {
      "photo_id": "7727120100",
      "gt_lat": 36.141944,
      "gt_lon": -96.105431,
      "pred_country": "Thailand",
      "pred_city": "Denver, Colorado",
      "pred_street": "Bangkok",
      "pred_lat": 13.7524938,
      "pred_lon": 100.4935089,
      "dist_km": 14199.454640357631,
      "country_posterior": {
        "Australia": 0.1237,
        "Brazil": 0.1192,
        "South Africa": 0.0719,
        "New Zealand": 0.1559,
        "Argentina": 0.1688,
        "Indonesia": 0.1184,
        "Thailand": 0.2421
      }
    },
    {
      "photo_id": "4575331333",
      "gt_lat": 51.958758,
      "gt_lon": 1.347283,
      "pred_country": "Unknown",
      "pred_city": "Brighton, UK",
      "pred_street": "Brighton, UK",
      "pred_lat": 50.8214626,
      "pred_lon": -0.1400561,
      "dist_km": 163.2203206999312,
      "country_posterior": {
        "Unknown": 1.0
      }
    },
    {
      "photo_id": "3943096956",
      "gt_lat": 38.51152,
      "gt_lon": -89.988197,
      "pred_country": "Unknown",
      "pred_city": "Los Angeles",
      "pred_street": "Unknown",
      "pred_lat": 34.0536909,
      "pred_lon": -118.242766,
      "dist_km": 2570.0540027648394,
      "country_posterior": {
        "Unknown": 1.0
      }
    },
    {
      "photo_id": "5202715329",
      "gt_lat": 38.913108,
      "gt_lon": -76.966266,
      "pred_country": "Unknown",
      "pred_city": "Singapore",
      "pred_street": "Botanical Garden",
      "pred_lat": 55.8448473,
      "pred_lon": 37.6382437,
      "dist_km": 7811.456924098656,
      "country_posterior": {
        "Unknown": 1.0
      }
    },
    {
      "photo_id": "5486278354",
      "gt_lat": 50.380697,
      "gt_lon": 2.774047,
      "pred_country": "Unknown",
      "pred_city": "Arras, France",
      "pred_street": "Givenchy-Lens, France",
      "pred_lat": 50.3914489,
      "pred_lon": 2.7723644,
      "dist_km": 1.2014937241531518,
      "country_posterior": {
        "Unknown": 1.0
      }
    },
    {
      "photo_id": "7615829634",
      "gt_lat": 41.234574,
      "gt_lon": 1.810877,
      "pred_country": "Unknown",
      "pred_city": "Sant Feliu de Gu\u00edxols, Spain",
      "pred_street": "Sant Feliu de Gu\u00edxols, Spain",
      "pred_lat": 41.7838827,
      "pred_lon": 3.0283195,
      "dist_km": 118.35165464532096,
      "country_posterior": {
        "Unknown": 1.0
      }
    },
    {
      "photo_id": "6367970783",
      "gt_lat": 36.058833,
      "gt_lon": -112.084,
      "pred_country": "Unknown",
      "pred_city": "Grand Canyon National Park, Arizona, USA",
      "pred_street": "Grand Canyon National Park",
      "pred_lat": 36.3078548,
      "pred_lon": -112.292896,
      "dist_km": 33.439908269156085,
      "country_posterior": {
        "Unknown": 1.0
      }
    },
    {
      "photo_id": "2336543667",
      "gt_lat": 39.909143,
      "gt_lon": 116.269769,
      "pred_country": "Unknown",
      "pred_city": "New York City",
      "pred_street": "New York City, USA",
      "pred_lat": 40.7127281,
      "pred_lon": -74.0060152,
      "dist_km": 10990.17049070322,
      "country_posterior": {
        "Unknown": 1.0
      }
    },
    {
      "photo_id": "6145125720",
      "gt_lat": 43.529069,
      "gt_lon": -74.942162,
      "pred_country": "Unknown",
      "pred_city": "Lake Placid, New York",
      "pred_street": "Lake Placid, New York",
      "pred_lat": 44.2831194,
      "pred_lon": -73.9828318,
      "dist_km": 113.7391160958774,
      "country_posterior": {
        "Unknown": 1.0
      }
    },
    {
      "photo_id": "5581458562",
      "gt_lat": -31.82637,
      "gt_lon": -60.518598,
      "pred_country": "Unknown",
      "pred_city": "Los Angeles",
      "pred_street": "Unknown",
      "pred_lat": 34.0536909,
      "pred_lon": -118.242766,
      "dist_km": 9493.443911053451,
      "country_posterior": {
        "Unknown": 1.0
      }
    },
    {
      "photo_id": "8060735888",
      "gt_lat": 39.671124,
      "gt_lon": 19.700889,
      "pred_country": "Unknown",
      "pred_city": "Athens, Greece",
      "pred_street": "Greek Monastery",
      "pred_lat": 32.0494618,
      "pred_lon": 34.7500261,
      "dist_km": 1595.8957201542971,
      "country_posterior": {
        "Unknown": 1.0
      }
    },
    {
      "photo_id": "10977505143",
      "gt_lat": 29.283976,
      "gt_lon": 48.060423,
      "pred_country": "Unknown",
      "pred_city": "San Francisco",
      "pred_street": "Los Angeles, California",
      "pred_lat": 34.0536909,
      "pred_lon": -118.242766,
      "dist_km": 12826.580628432293,
      "country_posterior": {
        "Unknown": 1.0
      }
    },
    {
      "photo_id": "8084276410",
      "gt_lat": 39.469325,
      "gt_lon": -3.535598,
      "pred_country": "Unknown",
      "pred_city": "Ciudad Real, Castilla-La Mancha, Spain",
      "pred_street": "Ciudad Real, Castilla-La Mancha, Spain",
      "pred_lat": 38.9597347,
      "pred_lon": -3.8828744,
      "dist_km": 64.07726025966579,
      "country_posterior": {
        "Unknown": 1.0
      }
    },
    {
      "photo_id": "3260241052",
      "gt_lat": 44.85,
      "gt_lon": 9.866667,
      "pred_country": "Unknown",
      "pred_city": "Verona, Italy",
      "pred_street": "Italy",
      "pred_lat": 42.6384261,
      "pred_lon": 12.674297,
      "dist_km": 333.63778727076823,
      "country_posterior": {
        "Unknown": 1.0
      }
    },
    {
      "photo_id": "8601885748",
      "gt_lat": 36.832641,
      "gt_lon": -76.297706,
      "pred_country": "Unknown",
      "pred_city": "Atlanta, Georgia",
      "pred_street": "Unknown",
      "pred_lat": 33.7544657,
      "pred_lon": -84.3898151,
      "dist_km": 809.8781205613074,
      "country_posterior": {
        "Unknown": 1.0
      }
    },
    {
      "photo_id": "2632108654",
      "gt_lat": 48.299839,
      "gt_lon": 4.08039,
      "pred_country": "Unknown",
      "pred_city": "Paris, France",
      "pred_street": "Notre-Dame Cathedral, Paris",
      "pred_lat": 48.8529371,
      "pred_lon": 2.3500501,
      "dist_km": 141.3726968698173,
      "country_posterior": {
        "Unknown": 1.0
      }
    },
    {
      "photo_id": "8718274328",
      "gt_lat": 32.530044,
      "gt_lon": -117.023148,
      "pred_country": "Australia",
      "pred_city": "Amsterdam, Netherlands",
      "pred_street": "Sydney, Australia",
      "pred_lat": -33.8698439,
      "pred_lon": 151.2082848,
      "dist_km": 12091.461391107734,
      "country_posterior": {
        "Australia": 0.2157,
        "Brazil": 0.0931,
        "South Africa": 0.1647,
        "New Zealand": 0.1628,
        "India": 0.1466,
        "Indonesia": 0.0589,
        "Malaysia": 0.0925,
        "Thailand": 0.0656
      }
    },
    {
      "photo_id": "8438088552",
      "gt_lat": 15.876231,
      "gt_lon": 108.333048,
      "pred_country": "China",
      "pred_city": "Taipei, Taiwan",
      "pred_street": "Guangzhou, China",
      "pred_lat": 23.1288429,
      "pred_lon": 113.2589581,
      "dist_km": 957.30651078592,
      "country_posterior": {
        "China": 0.6814,
        "Vietnam": 0.0404,
        "Indonesia": 0.0399,
        "Thailand": 0.0309,
        "Malaysia": 0.0397,
        "Singapore": 0.0785,
        "Japan": 0.0396,
        "South Korea": 0.0497
      }
    },
    {
      "photo_id": "9588963220",
      "gt_lat": -37.815725,
      "gt_lon": 144.96506,
      "pred_country": "Brazil",
      "pred_city": "Tokyo, Japan",
      "pred_street": "S\u00e3o Paulo",
      "pred_lat": -23.5506507,
      "pred_lon": -46.6333824,
      "dist_km": 13084.603843936784,
      "country_posterior": {
        "Australia": 0.1395,
        "Brazil": 0.2617,
        "South Africa": 0.0693,
        "New Zealand": 0.0376,
        "Indonesia": 0.0439,
        "Malaysia": 0.14,
        "Thailand": 0.1491,
        "India": 0.159
      }
    },
    {
      "photo_id": "5973729693",
      "gt_lat": 41.395431,
      "gt_lon": 2.161964,
      "pred_country": "Brazil",
      "pred_city": "Los Angeles",
      "pred_street": "Rio de Janeiro",
      "pred_lat": -22.9110137,
      "pred_lon": -43.2093727,
      "dist_km": 8542.090037029044,
      "country_posterior": {
        "Australia": 0.087,
        "Brazil": 0.2844,
        "South Africa": 0.0805,
        "New Zealand": 0.0963,
        "India": 0.0646,
        "Indonesia": 0.0774,
        "Thailand": 0.096,
        "Malaysia": 0.2138
      }
    },
    {
      "photo_id": "3120411696",
      "gt_lat": 40.459039,
      "gt_lon": -3.465924,
      "pred_country": "Unknown",
      "pred_city": "Madrid, Spain",
      "pred_street": "Madrid, Spain",
      "pred_lat": 40.416782,
      "pred_lon": -3.703507,
      "dist_km": 20.64872134667463,
      "country_posterior": {
        "Unknown": 1.0
      }
    },
    {
      "photo_id": "6336923118",
      "gt_lat": 35.728633,
      "gt_lon": 139.719754,
      "pred_country": "South Africa",
      "pred_city": "South Africa",
      "pred_street": "Cape Town, South Africa",
      "pred_lat": -33.9288301,
      "pred_lon": 18.4172197,
      "dist_km": 14735.961795827501,
      "country_posterior": {
        "South Africa": 0.8597,
        "Argentina": 0.0073,
        "New Zealand": 0.013,
        "Australia": 0.0209,
        "Brazil": 0.025,
        "Indonesia": 0.0225,
        "Peru": 0.0146,
        "South Korea": 0.0369
      }
    },
    {
      "photo_id": "6434535893",
      "gt_lat": 13.757732,
      "gt_lon": 100.640087,
      "pred_country": "Unknown",
      "pred_city": "Bangkok, Thailand",
      "pred_street": "Bangkok, Thailand",
      "pred_lat": 13.7524938,
      "pred_lon": 100.4935089,
      "dist_km": 15.842018134493083,
      "country_posterior": {
        "Unknown": 1.0
      }
    },
    {
      "photo_id": "5032324949",
      "gt_lat": -27.471053,
      "gt_lon": 153.018651,
      "pred_country": "Unknown",
      "pred_city": "Brisbane, Australia",
      "pred_street": "South Bank, Brisbane, Australia",
      "pred_lat": -27.4762827,
      "pred_lon": 153.0199491,
      "dist_km": 0.5954504876650333,
      "country_posterior": {
        "Unknown": 1.0
      }
    },
    {
      "photo_id": "11660259034",
      "gt_lat": -54.80191,
      "gt_lon": -68.30295,
      "pred_country": "Argentina",
      "pred_city": "Ushuaia, Argentina",
      "pred_street": "Ushuaia, Argentina",
      "pred_lat": -54.807306,
      "pred_lon": -68.3084133,
      "dist_km": 0.6946983294422814,
      "country_posterior": {
        "Argentina": 0.6106,
        "Chile": 0.1042,
        "New Zealand": 0.047,
        "Australia": 0.0393,
        "South Africa": 0.051,
        "Brazil": 0.0687,
        "Indonesia": 0.0332,
        "India": 0.0458
      }
    },
    {
      "photo_id": "5577601568",
      "gt_lat": 3.859025,
      "gt_lon": 73.453694,
      "pred_country": "Unknown",
      "pred_city": "Maldives",
      "pred_street": "Maldives",
      "pred_lat": 3.7203503,
      "pred_lon": 73.2244152,
      "dist_km": 29.747452735692494,
      "country_posterior": {
        "Unknown": 1.0
      }
    },
    {
      "photo_id": "8302511102",
      "gt_lat": 40.767455,
      "gt_lon": -84.146581,
      "pred_country": "South Africa",
      "pred_city": "Chicago, Illinois",
      "pred_street": "South Africa",
      "pred_lat": -28.8166236,
      "pred_lon": 24.991639,
      "dist_km": 13583.680451341144,
      "country_posterior": {
        "Australia": 0.0908,
        "Brazil": 0.1932,
        "South Africa": 0.2188,
        "New Zealand": 0.146,
        "India": 0.0499,
        "Japan": 0.1605,
        "South Korea": 0.0481,
        "Thailand": 0.0926
      }
    },
    {
      "photo_id": "3690477651",
      "gt_lat": 39.825899,
      "gt_lon": -86.185405,
      "pred_country": "South Africa",
      "pred_city": "New York City",
      "pred_street": "Soweto, Johannesburg",
      "pred_lat": -26.2131489,
      "pred_lon": 27.9584847,
      "dist_km": 13830.767790208893,
      "country_posterior": {
        "Australia": 0.131,
        "Brazil": 0.1667,
        "South Africa": 0.2299,
        "India": 0.131,
        "Thailand": 0.0662,
        "Malaysia": 0.0632,
        "Indonesia": 0.1115,
        "Japan": 0.1004
      }
    },
    {
      "photo_id": "3097510577",
      "gt_lat": 45.133849,
      "gt_lon": 7.628333,
      "pred_country": "Unknown",
      "pred_city": "Venice, Italy",
      "pred_street": "Piazza della Signoria, Florence, Italy",
      "pred_lat": 43.7695737,
      "pred_lon": 11.2558641,
      "dist_km": 325.41047093647467,
      "country_posterior": {
        "Unknown": 1.0
      }
    },
    {
      "photo_id": "5161976937",
      "gt_lat": 51.700438,
      "gt_lon": 5.674781,
      "pred_country": "Brazil",
      "pred_city": "Los Angeles",
      "pred_street": "S\u00e3o Paulo",
      "pred_lat": -23.5506507,
      "pred_lon": -46.6333824,
      "dist_km": 9792.108712911975,
      "country_posterior": {
        "Australia": 0.1215,
        "Brazil": 0.2848,
        "South Africa": 0.1718,
        "New Zealand": 0.1138,
        "Argentina": 0.1062,
        "Indonesia": 0.0492,
        "Thailand": 0.1526
      }
    },
    {
      "photo_id": "5552028943",
      "gt_lat": 59.499916,
      "gt_lon": 17.600076,
      "pred_country": "Unknown",
      "pred_city": "Lake Placid, New York",
      "pred_street": "Frozen Lake District",
      "pred_lat": 50.5724672,
      "pred_lon": -115.1023528,
      "dist_km": 7055.602005319112,
      "country_posterior": {
        "Unknown": 1.0
      }
    },
    {
      "photo_id": "5100254219",
      "gt_lat": 41.387917,
      "gt_lon": 2.169919,
      "pred_country": "Unknown",
      "pred_city": "San Francisco",
      "pred_street": "New York City, USA",
      "pred_lat": 40.7127281,
      "pred_lon": -74.0060152,
      "dist_km": 6165.71990215007,
      "country_posterior": {
        "Unknown": 1.0
      }
    },
    {
      "photo_id": "164961282",
      "gt_lat": 30.298875,
      "gt_lon": -97.76184,
      "pred_country": "Unknown",
      "pred_city": "New York City",
      "pred_street": "London, UK",
      "pred_lat": 51.5074456,
      "pred_lon": -0.1277653,
      "dist_km": 7908.8756152730975,
      "country_posterior": {
        "Unknown": 1.0
      }
    },
    {
      "photo_id": "5872802098",
      "gt_lat": 52.504,
      "gt_lon": 13.333,
      "pred_country": "Unknown",
      "pred_city": "Paris",
      "pred_street": "Unknown",
      "pred_lat": 48.8588897,
      "pred_lon": 2.320041,
      "dist_km": 874.1497094849849,
      "country_posterior": {
        "Unknown": 1.0
      }
    },
    {
      "photo_id": "8456755398",
      "gt_lat": 52.413519,
      "gt_lon": 13.090095,
      "pred_country": "Unknown",
      "pred_city": "Berlin, Germany",
      "pred_street": "Berlin, Germany",
      "pred_lat": 52.5173885,
      "pred_lon": 13.3951309,
      "dist_km": 23.673099238703,
      "country_posterior": {
        "Unknown": 1.0
      }
    },
    {
      "photo_id": "9090879865",
      "gt_lat": 36.36743,
      "gt_lon": 10.53556,
      "pred_country": "Brazil",
      "pred_city": "Cairo, Egypt",
      "pred_street": "S\u00e3o Paulo",
      "pred_lat": -23.5506507,
      "pred_lon": -46.6333824,
      "dist_km": 8962.602625607182,
      "country_posterior": {
        "Australia": 0.1527,
        "Brazil": 0.162,
        "South Africa": 0.1328,
        "India": 0.1134,
        "Indonesia": 0.0903,
        "Malaysia": 0.0971,
        "Thailand": 0.1222,
        "Singapore": 0.1295
      }
    },
    {
      "photo_id": "6200440829",
      "gt_lat": 48.693339,
      "gt_lon": 6.184213,
      "pred_country": "Unknown",
      "pred_city": "Berlin, Germany",
      "pred_street": "Paris, France",
      "pred_lat": 48.8588897,
      "pred_lon": 2.320041,
      "dist_km": 283.72497773484736,
      "country_posterior": {
        "Unknown": 1.0
      }
    },
    {
      "photo_id": "7948787006",
      "gt_lat": 42.150423,
      "gt_lon": 0.229339,
      "pred_country": "Unknown",
      "pred_city": "New Orleans, USA",
      "pred_street": "Historical Reenactment Event",
      "pred_lat": 29.9561422,
      "pred_lon": -90.0733934,
      "dist_km": 7853.470938584728,
      "country_posterior": {
        "Unknown": 1.0
      }
    },
    {
      "photo_id": "11227499375",
      "gt_lat": 52.379646,
      "gt_lon": 4.594581,
      "pred_country": "United Kingdom",
      "pred_city": "Chatsworth House, England",
      "pred_street": "Stately Homes in the UK",
      "pred_lat": 53.2275873,
      "pred_lon": -1.6113902,
      "dist_km": 427.55532867784035,
      "country_posterior": {
        "United Kingdom": 0.4861,
        "France": 0.1247,
        "Germany": 0.1031,
        "Australia": 0.0496,
        "South Africa": 0.0529,
        "India": 0.0575,
        "Japan": 0.0583,
        "China": 0.0679
      }
    },
    {
      "photo_id": "3405277734",
      "gt_lat": 45.25523,
      "gt_lon": 5.02706,
      "pred_country": "Thailand",
      "pred_city": "Rome, Italy",
      "pred_street": "Ayutthaya, Thailand",
      "pred_lat": 14.3189468,
      "pred_lon": 100.5111681,
      "dist_km": 9302.284921739236,
      "country_posterior": {
        "India": 0.1281,
        "Indonesia": 0.1088,
        "Thailand": 0.1966,
        "Malaysia": 0.0888,
        "Vietnam": 0.0813,
        "Myanmar": 0.1181,
        "Cambodia": 0.136,
        "Sri Lanka": 0.1422
      }
    },
    {
      "photo_id": "5112083883",
      "gt_lat": 35.640593,
      "gt_lon": 139.403017,
      "pred_country": "Unknown",
      "pred_city": "University of Oxford, UK",
      "pred_street": "University lecture hall",
      "pred_lat": 28.0605282,
      "pred_lon": -82.4098008,
      "dist_km": 11685.98217834442,
      "country_posterior": {
        "Unknown": 1.0
      }
    },
    {
      "photo_id": "7570415532",
      "gt_lat": 36.841232,
      "gt_lon": 126.190595,
      "pred_country": "South Africa",
      "pred_city": "Sarasota, Florida, USA",
      "pred_street": "Cape Town",
      "pred_lat": -33.9288301,
      "pred_lon": 18.4172197,
      "dist_km": 13621.929064321897,
      "country_posterior": {
        "Australia": 0.1501,
        "South Africa": 0.1694,
        "New Zealand": 0.1569,
        "Brazil": 0.1284,
        "Argentina": 0.1368,
        "India": 0.1462,
        "China": 0.1121
      }
    },
    {
      "photo_id": "8478395761",
      "gt_lat": 44.138801,
      "gt_lon": 12.243629,
      "pred_country": "Unknown",
      "pred_city": "Florence, Italy",
      "pred_street": "Florence, Italy",
      "pred_lat": 43.7697955,
      "pred_lon": 11.2556404,
      "dist_km": 89.0965133361183,
      "country_posterior": {
        "Unknown": 1.0
      }
    },
    {
      "photo_id": "2356540937",
      "gt_lat": 19.155546,
      "gt_lon": -96.144447,
      "pred_country": "Australia",
      "pred_city": "Cartagena, Colombia",
      "pred_street": "Sydney, Australia",
      "pred_lat": -33.8698439,
      "pred_lon": 151.2082848,
      "dist_km": 13232.740577675397,
      "country_posterior": {
        "Brazil": 0.1172,
        "Indonesia": 0.1668,
        "South Africa": 0.09,
        "Australia": 0.2277,
        "Argentina": 0.1776,
        "New Zealand": 0.0773,
        "Malaysia": 0.0698,
        "Thailand": 0.0735
      }
    },
    {
      "photo_id": "5558253851",
      "gt_lat": -11.402797,
      "gt_lon": -40.128765,
      "pred_country": "Unknown",
      "pred_city": "S\u00e3o Paulo, Brazil",
      "pred_street": "Unknown",
      "pred_lat": -23.5506507,
      "pred_lon": -46.6333824,
      "dist_km": 1515.9798885182106,
      "country_posterior": {
        "Unknown": 1.0
      }
    },
    {
      "photo_id": "5079452106",
      "gt_lat": 40.701658,
      "gt_lon": -73.949875,
      "pred_country": "Unknown",
      "pred_city": "New York City",
      "pred_street": "Audio Production Studio",
      "pred_lat": 41.3749004,
      "pred_lon": -83.640746,
      "dist_km": 815.7927112317421,
      "country_posterior": {
        "Unknown": 1.0
      }
    },
    {
      "photo_id": "5292540094",
      "gt_lat": 29.996422,
      "gt_lon": 31.228458,
      "pred_country": "South Africa",
      "pred_city": "Cairo, Egypt",
      "pred_street": "Durban International Airport",
      "pred_lat": -29.9702395,
      "pred_lon": 30.949297,
      "dist_km": 6668.054059925473,
      "country_posterior": {
        "Australia": 0.1603,
        "South Africa": 0.1929,
        "Brazil": 0.128,
        "Argentina": 0.1194,
        "New Zealand": 0.0952,
        "Indonesia": 0.0805,
        "Malaysia": 0.1089,
        "Thailand": 0.1147
      }
    },
    {
      "photo_id": "2370108583",
      "gt_lat": 33.566983,
      "gt_lon": 133.5436,
      "pred_country": "Japan",
      "pred_city": "Tokyo, Japan",
      "pred_street": "Tokyo",
      "pred_lat": 35.6768601,
      "pred_lon": 139.7638947,
      "dist_km": 615.483505311411,
      "country_posterior": {
        "Australia": 0.0313,
        "Brazil": 0.0651,
        "South Africa": 0.074,
        "India": 0.0483,
        "Japan": 0.5957,
        "Thailand": 0.0657,
        "Malaysia": 0.0604,
        "Indonesia": 0.0595
      }
    },
    {
      "photo_id": "7127688987",
      "gt_lat": 32.247941,
      "gt_lon": 119.467391,
      "pred_country": "South Africa",
      "pred_city": "Los Angeles",
      "pred_street": "Johannesburg, South Africa",
      "pred_lat": -26.205,
      "pred_lon": 28.049722,
      "dist_km": 11646.310992105593,
      "country_posterior": {
        "Australia": 0.0761,
        "Brazil": 0.1072,
        "South Africa": 0.2042,
        "New Zealand": 0.1665,
        "Argentina": 0.1184,
        "Indonesia": 0.1174,
        "Thailand": 0.1085,
        "India": 0.1018
      }
    },
    {
      "photo_id": "8174930098",
      "gt_lat": 48.86169,
      "gt_lon": 2.333102,
      "pred_country": "France",
      "pred_city": "Paris, France",
      "pred_street": "Paris, France",
      "pred_lat": 48.8588897,
      "pred_lon": 2.320041,
      "dist_km": 1.004933017819054,
      "country_posterior": {
        "France": 0.5711,
        "Italy": 0.1404,
        "Spain": 0.0682,
        "Australia": 0.0448,
        "Brazil": 0.0366,
        "South Africa": 0.0509,
        "India": 0.0509,
        "Japan": 0.037
      }
    },
    {
      "photo_id": "5694916102",
      "gt_lat": 45.532188,
      "gt_lon": -122.684791,
      "pred_country": "Unknown",
      "pred_city": "New York City",
      "pred_street": "Music Festival",
      "pred_lat": 26.1088043,
      "pred_lon": -80.1048077,
      "dist_km": 4335.718189733601,
      "country_posterior": {
        "Unknown": 1.0
      }
    },
    {
      "photo_id": "10728351393",
      "gt_lat": -12.943729,
      "gt_lon": -38.431142,
      "pred_country": "Unknown",
      "pred_city": "Washington D.C.",
      "pred_street": "Unknown",
      "pred_lat": 38.8950982,
      "pred_lon": -77.0363849,
      "dist_km": 7018.711190353828,
      "country_posterior": {
        "Unknown": 1.0
      }
    },
    {
      "photo_id": "8100527460",
      "gt_lat": 53.951489,
      "gt_lon": -0.882554,
      "pred_country": "Australia",
      "pred_city": "Los Angeles",
      "pred_street": "Sydney, Australia",
      "pred_lat": -33.8698439,
      "pred_lon": 151.2082848,
      "dist_km": 16893.859951745897,
      "country_posterior": {
        "Australia": 0.16,
        "Brazil": 0.1405,
        "South Africa": 0.1373,
        "New Zealand": 0.1151,
        "Argentina": 0.1113,
        "Indonesia": 0.1204,
        "Thailand": 0.1108,
        "India": 0.1047
      }
    },
    {
      "photo_id": "5877470597",
      "gt_lat": 45.085429,
      "gt_lon": -85.323429,
      "pred_country": "Unknown",
      "pred_city": "Singapore",
      "pred_street": "Tropical Rainforest",
      "pred_lat": -27.4793779,
      "pred_lon": 152.9692175,
      "dist_km": 14565.918810750503,
      "country_posterior": {
        "Unknown": 1.0
      }
    },
    {
      "photo_id": "2498375715",
      "gt_lat": 31.104685,
      "gt_lon": 77.177581,
      "pred_country": "Unknown",
      "pred_city": "Rio de Janeiro, Brazil",
      "pred_street": "Shanghai, China",
      "pred_lat": 31.2312707,
      "pred_lon": 121.4700152,
      "dist_km": 4184.872998288257,
      "country_posterior": {
        "Unknown": 1.0
      }
    },
    {
      "photo_id": "6930261843",
      "gt_lat": 40.669722,
      "gt_lon": -73.893056,
      "pred_country": "Brazil",
      "pred_city": "New York City",
      "pred_street": "Brazil",
      "pred_lat": -10.3333333,
      "pred_lon": -53.2,
      "dist_km": 6056.696939925217,
      "country_posterior": {
        "Australia": 0.2249,
        "Brazil": 0.2832,
        "South Africa": 0.0395,
        "New Zealand": 0.1824,
        "Argentina": 0.0813,
        "Indonesia": 0.0505,
        "India": 0.1382
      }
    },
    {
      "photo_id": "3922398702",
      "gt_lat": -7.78141,
      "gt_lon": 110.354232,
      "pred_country": "Indonesia",
      "pred_city": "Java, Indonesia",
      "pred_street": "Java, Indonesia",
      "pred_lat": -6.7115076,
      "pred_lon": 110.6337137,
      "dist_km": 122.89710982088958,
      "country_posterior": {
        "Indonesia": 0.5861,
        "Malaysia": 0.08,
        "Thailand": 0.0622,
        "Singapore": 0.0638,
        "India": 0.0556,
        "Vietnam": 0.06,
        "Myanmar": 0.055,
        "Cambodia": 0.0372
      }
    },
    {
      "photo_id": "6276252638",
      "gt_lat": 59.617942,
      "gt_lon": 17.717857,
      "pred_country": "Australia",
      "pred_city": "Rome, Italy",
      "pred_street": "Mount Lofty, Adelaide",
      "pred_lat": -35.0050589,
      "pred_lon": 138.6600096,
      "dist_km": 15018.266195731543,
      "country_posterior": {
        "Australia": 0.171,
        "South Africa": 0.1219,
        "India": 0.141,
        "Japan": 0.1307,
        "China": 0.1018,
        "Thailand": 0.1108,
        "Indonesia": 0.1138,
        "South Korea": 0.1089
      }
    },
    {
      "photo_id": "8603260545",
      "gt_lat": 39.632488,
      "gt_lon": 2.457127,
      "pred_country": "Unknown",
      "pred_city": "Wakanda",
      "pred_street": "Wakanda",
      "pred_lat": 13.7587356,
      "pred_lon": 100.4982549,
      "dist_km": 9707.585105846674,
      "country_posterior": {
        "Unknown": 1.0
      }
    },
    {
      "photo_id": "5775790259",
      "gt_lat": 38.99739,
      "gt_lon": -108.740951,
      "pred_country": "Unknown",
      "pred_city": "Rural Area, USA",
      "pred_street": "Rural Fairground",
      "pred_lat": 38.076979,
      "pred_lon": -89.3974449,
      "dist_km": 1682.3841540884869,
      "country_posterior": {
        "Unknown": 1.0
      }
    },
    {
      "photo_id": "2206311719",
      "gt_lat": -10.768555,
      "gt_lon": 37.30957,
      "pred_country": "Unknown",
      "pred_city": "Kampala, Uganda",
      "pred_street": "Sub-Saharan Africa",
      "pred_lat": 0.3177137,
      "pred_lon": 32.5813539,
      "dist_km": 1338.9867585169645,
      "country_posterior": {
        "Unknown": 1.0
      }
    },
    {
      "photo_id": "6318333539",
      "gt_lat": 41.290758,
      "gt_lon": -82.21763,
      "pred_country": "New Zealand",
      "pred_city": "New York City",
      "pred_street": "Auckland",
      "pred_lat": -36.852095,
      "pred_lon": 174.7631803,
      "dist_km": 13575.476573018603,
      "country_posterior": {
        "Australia": 0.1227,
        "Brazil": 0.125,
        "South Africa": 0.1162,
        "New Zealand": 0.1843,
        "India": 0.1133,
        "Japan": 0.0831,
        "Thailand": 0.148,
        "Malaysia": 0.1073
      }
    },
    {
      "photo_id": "3106830959",
      "gt_lat": 40.763023,
      "gt_lon": -74.001739,
      "pred_country": "United States",
      "pred_city": "New York City",
      "pred_street": "Manhattan, New York City",
      "pred_lat": 40.7579554,
      "pred_lon": -73.9855319,
      "dist_km": 1.476761604282266,
      "country_posterior": {
        "United States": 0.6423,
        "Canada": 0.072,
        "United Kingdom": 0.0457,
        "Australia": 0.0676,
        "South Africa": 0.0558,
        "India": 0.0354,
        "Japan": 0.0431,
        "China": 0.038
      }
    },
    {
      "photo_id": "5249924279",
      "gt_lat": -36.780829,
      "gt_lon": 174.830267,
      "pred_country": "New Zealand",
      "pred_city": "New Zealand",
      "pred_street": "Auckland, New Zealand",
      "pred_lat": -36.852095,
      "pred_lon": 174.7631803,
      "dist_km": 9.922719169108946,
      "country_posterior": {
        "Australia": 0.2245,
        "Brazil": 0.0815,
        "South Africa": 0.0641,
        "New Zealand": 0.2883,
        "Argentina": 0.0727,
        "Indonesia": 0.0747,
        "Malaysia": 0.0658,
        "Thailand": 0.1284
      }
    },
    {
      "photo_id": "4436578151",
      "gt_lat": -10.801691,
      "gt_lon": -37.171726,
      "pred_country": "Thailand",
      "pred_city": "Los Angeles",
      "pred_street": "Chiang Mai",
      "pred_lat": 18.7882778,
      "pred_lon": 98.9858802,
      "dist_km": 15231.12644047664,
      "country_posterior": {
        "Australia": 0.1124,
        "Brazil": 0.118,
        "South Africa": 0.12,
        "India": 0.1339,
        "Indonesia": 0.0889,
        "Thailand": 0.1583,
        "Malaysia": 0.1182,
        "Vietnam": 0.1503
      }
    },
    {
      "photo_id": "2542447344",
      "gt_lat": 39.542945,
      "gt_lon": -104.920248,
      "pred_country": "Brazil",
      "pred_city": "Los Angeles",
      "pred_street": "Brazilian Countryside",
      "pred_lat": 34.0536909,
      "pred_lon": -118.242766,
      "dist_km": 1332.1137051406615,
      "country_posterior": {
        "Australia": 0.1687,
        "Brazil": 0.1701,
        "South Africa": 0.1219,
        "New Zealand": 0.1205,
        "Argentina": 0.1188,
        "Indonesia": 0.1063,
        "Thailand": 0.1138,
        "India": 0.0799
      }
    },
    {
      "photo_id": "14010060531",
      "gt_lat": 33.887455,
      "gt_lon": -118.269303,
      "pred_country": "Unknown",
      "pred_city": "Los Angeles, California",
      "pred_street": "California, USA",
      "pred_lat": 36.7014631,
      "pred_lon": -118.755997,
      "dist_km": 316.0041392352354,
      "country_posterior": {
        "Unknown": 1.0
      }
    },
    {
      "photo_id": "12624585124",
      "gt_lat": 39.891916,
      "gt_lon": -75.251133,
      "pred_country": "South Africa",
      "pred_city": "Chicago",
      "pred_street": "Johannesburg",
      "pred_lat": -26.205,
      "pred_lon": 28.049722,
      "dist_km": 12921.389284769371,
      "country_posterior": {
        "Australia": 0.0666,
        "Brazil": 0.1428,
        "South Africa": 0.169,
        "New Zealand": 0.1339,
        "India": 0.1676,
        "Indonesia": 0.114,
        "Malaysia": 0.0541,
        "Thailand": 0.152
      }
    },
    {
      "photo_id": "8562780685",
      "gt_lat": 27.741732,
      "gt_lon": -80.448932,
      "pred_country": "South Africa",
      "pred_city": "Santa Cruz, California",
      "pred_street": "Durban",
      "pred_lat": -29.861825,
      "pred_lon": 31.009909,
      "dist_km": 13436.210412019003,
      "country_posterior": {
        "Australia": 0.0867,
        "Brazil": 0.1422,
        "South Africa": 0.1924,
        "New Zealand": 0.0674,
        "Argentina": 0.0797,
        "India": 0.1905,
        "Thailand": 0.1771,
        "Malaysia": 0.0641
      }
    },
    {
      "photo_id": "12733208643",
      "gt_lat": 51.431069,
      "gt_lon": -2.675471,
      "pred_country": "Unknown",
      "pred_city": "London, UK",
      "pred_street": "Woodland Area",
      "pred_lat": 53.2382276,
      "pred_lon": -2.5162181,
      "dist_km": 201.23784108201392,
      "country_posterior": {
        "Unknown": 1.0
      }
    },
    {
      "photo_id": "339789508",
      "gt_lat": 40.658357,
      "gt_lon": -73.973071,
      "pred_country": "China",
      "pred_city": "Canada",
      "pred_street": "Shanghai",
      "pred_lat": 31.2312707,
      "pred_lon": 121.4700152,
      "dist_km": 11864.950773757862,
      "country_posterior": {
        "Australia": 0.1674,
        "Brazil": 0.1697,
        "South Africa": 0.1272,
        "New Zealand": 0.0796,
        "Argentina": 0.0766,
        "India": 0.1027,
        "China": 0.2043,
        "Japan": 0.0724
      }
    },
    {
      "photo_id": "3852312013",
      "gt_lat": 38.900652,
      "gt_lon": -9.037628,
      "pred_country": "Unknown",
      "pred_city": "Las Vegas, Nevada",
      "pred_street": "Munich, Germany",
      "pred_lat": 48.1371079,
      "pred_lon": 11.5753822,
      "dist_km": 1944.4697402387108,
      "country_posterior": {
        "Unknown": 1.0
      }
    },
    {
      "photo_id": "9560329818",
      "gt_lat": 31.43006,
      "gt_lon": -100.502923,
      "pred_country": "Unknown",
      "pred_city": "United States",
      "pred_street": "Supermarket in a developed country",
      "pred_lat": 39.7837304,
      "pred_lon": -100.445882,
      "dist_km": 928.9000169435635,
      "country_posterior": {
        "Unknown": 1.0
      }
    },
    {
      "photo_id": "6945202165",
      "gt_lat": 40.433791,
      "gt_lon": -3.611392,
      "pred_country": "South Africa",
      "pred_city": "New York City",
      "pred_street": "Durban",
      "pred_lat": -29.861825,
      "pred_lon": 31.009909,
      "dist_km": 8592.528903233122,
      "country_posterior": {
        "Australia": 0.0508,
        "Brazil": 0.2178,
        "Argentina": 0.1407,
        "South Africa": 0.2407,
        "New Zealand": 0.1851,
        "Indonesia": 0.0395,
        "Thailand": 0.0734,
        "India": 0.0521
      }
    },
    {
      "photo_id": "6707881119",
      "gt_lat": 51.459542,
      "gt_lon": -0.946455,
      "pred_country": "Unknown",
      "pred_city": "Los Angeles (LAX Airport)",
      "pred_street": "Los Angeles International Airport (LAX)",
      "pred_lat": 33.9421675,
      "pred_lon": -118.4213591,
      "dist_km": 8736.053362747278,
      "country_posterior": {
        "Unknown": 1.0
      }
    },
    {
      "photo_id": "191684963",
      "gt_lat": 42.300159,
      "gt_lon": -71.104934,
      "pred_country": "Unknown",
      "pred_city": "Boston, Massachusetts",
      "pred_street": "Mount Auburn Cemetery, Cambridge, Massachusetts",
      "pred_lat": 42.370697,
      "pred_lon": -71.1440117,
      "dist_km": 8.475692134879251,
      "country_posterior": {
        "Unknown": 1.0
      }
    },
    {
      "photo_id": "4397112488",
      "gt_lat": 40.75448,
      "gt_lon": -73.886945,
      "pred_country": "Japan",
      "pred_city": "New York City",
      "pred_street": "Tokyo, Japan",
      "pred_lat": 35.6768601,
      "pred_lon": 139.7638947,
      "dist_km": 10847.746151841353,
      "country_posterior": {
        "Australia": 0.0998,
        "Brazil": 0.0344,
        "South Africa": 0.0819,
        "New Zealand": 0.1797,
        "South Korea": 0.1477,
        "Japan": 0.2171,
        "India": 0.1226,
        "China": 0.1168
      }
    },
    {
      "photo_id": "5380773202",
      "gt_lat": 46.49916,
      "gt_lon": 7.547264,
      "pred_country": "Thailand",
      "pred_city": "London",
      "pred_street": "Bangkok",
      "pred_lat": 13.7524938,
      "pred_lon": 100.4935089,
      "dist_km": 9125.063956983853,
      "country_posterior": {
        "Australia": 0.0368,
        "Brazil": 0.1137,
        "South Africa": 0.0713,
        "New Zealand": 0.1165,
        "India": 0.0504,
        "Indonesia": 0.1121,
        "Malaysia": 0.2155,
        "Thailand": 0.2837
      }
    },