{
  "summary": {
    "1": 5.45,
    "25": 16.12,
    "200": 26.35,
    "750": 43.47,
    "2500": 63.06
  },
  "total": 4516,
  "start": 0,
  "records": [
    {
      "photo_id": "10201275523",
      "gt_lat": 43.649708,
      "gt_lon": -79.365637,
      "pred_country": "Canada",
      "pred_city": "Toronto, Canada",
      "pred_street": "Toronto, Canada",
      "pred_lat": 43.6534817,
      "pred_lon": -79.3839347,
      "dist_km": 1.5307796947632426
    },
    {
      "photo_id": "7289030198",
      "gt_lat": 40.740067,
      "gt_lon": -73.985495,
      "pred_country": "United States",
      "pred_city": "Los Angeles",
      "pred_street": "New York City, United States",
      "pred_lat": 40.7127281,
      "pred_lon": -74.0060152,
      "dist_km": 3.4973340701458704
    },
    {
      "photo_id": "4572998878",
      "gt_lat": 42.33719,
      "gt_lon": -71.047843,
      "pred_country": "United States",
      "pred_city": "Chicago, USA",
      "pred_street": "Chicago, United States",
      "pred_lat": 41.8755616,
      "pred_lon": -87.6244212,
      "dist_km": 1366.2943266261186
    },
    {
      "photo_id": "2764520341",
      "gt_lat": 45.439357,
      "gt_lon": 12.333354,
      "pred_country": "Italy",
      "pred_city": "Venice, Italy",
      "pred_street": "Venice, Italy",
      "pred_lat": 45.4046171,
      "pred_lon": 12.3105232,
      "dist_km": 4.254051763638672
    },
    {
      "photo_id": "4224177264",
      "gt_lat": 22.280847,
      "gt_lon": 114.172041,
      "pred_country": "Malaysia",
      "pred_city": "Hong Kong",
      "pred_street": "University of Malaya, Kuala Lumpur",
      "pred_lat": 3.1257602,
      "pred_lon": 101.6558796,
      "dist_km": 2521.8488721949675
    },
    {
      "photo_id": "7196543710",
      "gt_lat": -34.885742,
      "gt_lon": 138.604736,
      "pred_country": "India",
      "pred_city": "London, UK",
      "pred_street": "Mysore, Karnataka, India",
      "pred_lat": 12.3051828,
      "pred_lon": 76.6553609,
      "dist_km": 8364.854257004994
    },
    {
      "photo_id": "2578705815",
      "gt_lat": 44.653512,
      "gt_lon": -123.044643,
      "pred_country": "United States",
      "pred_city": "United States",
      "pred_street": "California, USA",
      "pred_lat": 36.7014631,
      "pred_lon": -118.755997,
      "dist_km": 954.9621863585104
    },
    {
      "photo_id": "3320208977",
      "gt_lat": 29.819348,
      "gt_lon": -81.325092,
      "pred_country": "United States",
      "pred_city": "Jacksonville, Florida",
      "pred_street": "Florida, United States",
      "pred_lat": 27.7567667,
      "pred_lon": -81.4639835,
      "dist_km": 229.74754609532698
    },
    {
      "photo_id": "6148238788",
      "gt_lat": 51.799273,
      "gt_lon": 87.372894,
      "pred_country": "Scotland",
      "pred_city": "Scotland",
      "pred_street": "High Force Waterfall, Scotland",
      "pred_lat": 56.7861112,
      "pred_lon": -4.1140518,
      "dist_km": 5510.615778393862
    },
    {
      "photo_id": "9317551405",
      "gt_lat": 38.867205,
      "gt_lon": -77.045595,
      "pred_country": "United States",
      "pred_city": "New York City",
      "pred_street": "New York City",
      "pred_lat": 40.7127281,
      "pred_lon": -74.0060152,
      "dist_km": 330.9614670815672
    },
    {
      "photo_id": "2971664261",
      "gt_lat": 48.136709,
      "gt_lon": 11.565341,
      "pred_country": "Germany",
      "pred_city": "Vienna, Austria",
      "pred_street": "Berlin, Germany",
      "pred_lat": 52.5173885,
      "pred_lon": 13.3951309,
      "dist_km": 504.0857951845132
    },
    {
      "photo_id": "3141231450",
      "gt_lat": 22.432847,
      "gt_lon": 114.118788,
      "pred_country": "Malaysia",
      "pred_city": "Tropical Asia",
      "pred_street": "Penang, Malaysia",
      "pred_lat": 5.4065013,
      "pred_lon": 100.2559077,
      "dist_km": 2408.9027888300006
    },
    {
      "photo_id": "3222715183",
      "gt_lat": 52.448235,
      "gt_lon": -1.566066,
      "pred_country": "United States",
      "pred_city": "California, USA",
      "pred_street": "California",
      "pred_lat": 36.7014631,
      "pred_lon": -118.755997,
      "dist_km": 8394.240926456614
    },
    {
      "photo_id": "9047721345",
      "gt_lat": 43.679232,
      "gt_lon": 10.34882,
      "pred_country": "Italy",
      "pred_city": "Siena, Italy",
      "pred_street": "Sicily, Italy",
      "pred_lat": 37.587794,
      "pred_lon": 14.155048,
      "dist_km": 749.4123107164786
    },
    {
      "photo_id": "8063920174",
      "gt_lat": -8.392478,
      "gt_lon": 115.28424,
      "pred_country": "Thailand",
      "pred_city": "Singapore",
      "pred_street": "Chiang Mai",
      "pred_lat": 18.7882778,
      "pred_lon": 98.9858802,
      "dist_km": 3511.2664587540125
    },
    {
      "photo_id": "4684204212",
      "gt_lat": 37.782166,
      "gt_lon": -122.401334,
      "pred_country": "United States",
      "pred_city": "New York City",
      "pred_street": "New York City",
      "pred_lat": 40.7127281,
      "pred_lon": -74.0060152,
      "dist_km": 4127.317868334668
    },
    {
      "photo_id": "2939073272",
      "gt_lat": 26.103065,
      "gt_lon": -80.15319,
      "pred_country": "United States",
      "pred_city": "Tampa, Florida",
      "pred_street": "Sunshine Cathedral, United States",
      "pred_lat": 33.8116435,
      "pred_lon": -116.442928,
      "dist_km": 3579.9130544968452
    },
    {
      "photo_id": "7925056016",
      "gt_lat": 50.109166,
      "gt_lon": 8.678833,
      "pred_country": "Germany",
      "pred_city": "Berlin, Germany",
      "pred_street": "Berlin, Germany",
      "pred_lat": 52.5173885,
      "pred_lon": 13.3951309,
      "dist_km": 423.1233950800849
    },
    {
      "photo_id": "5955415539",
      "gt_lat": 29.278613,
      "gt_lon": -94.829177,
      "pred_country": "United States",
      "pred_city": "Paris",
      "pred_street": "New York City",
      "pred_lat": 40.7127281,
      "pred_lon": -74.0060152,
      "dist_km": 2274.111359147496
    },
    {
      "photo_id": "7111005721",
      "gt_lat": 34.989036,
      "gt_lon": 135.76765,
      "pred_country": "Japan",
      "pred_city": "Tokyo, Japan",
      "pred_street": "Kyoto, Japan",
      "pred_lat": 35.0115754,
      "pred_lon": 135.7681441,
      "dist_km": 2.5066709777485636
    },
    {
      "photo_id": "4710501494",
      "gt_lat": 4.61497,
      "gt_lon": -74.071176,
      "pred_country": "United States",
      "pred_city": "New York City",
      "pred_street": "Washington, D.C.",
      "pred_lat": 38.8950982,
      "pred_lon": -77.0363849,
      "dist_km": 3823.509145160054
    },
    {
      "photo_id": "5653220171",
      "gt_lat": 58.634969,
      "gt_lon": 16.795778,
      "pred_country": "Sweden",
      "pred_city": "Isle Royale National Park, Michigan",
      "pred_street": "Bj\u00f6rn\u00f6, Sweden",
      "pred_lat": 59.2073216,
      "pred_lon": 18.5672967,
      "dist_km": 119.95472425912942
    },
    {
      "photo_id": "10593624805",
      "gt_lat": 48.862173,
      "gt_lon": 2.394075,
      "pred_country": "France",
      "pred_city": "Paris, France",
      "pred_street": "P\u00e8re-Lachaise Cemetery, Paris, France",
      "pred_lat": 48.8611296,
      "pred_lon": 2.3940087,
      "dist_km": 0.11612211557755948
    },
    {
      "photo_id": "5377288276",
      "gt_lat": 37.780755,
      "gt_lon": -122.512321,
      "pred_country": "United States",
      "pred_city": "San Francisco",
      "pred_street": "San Francisco, California",
      "pred_lat": 37.7879363,
      "pred_lon": -122.4075201,
      "dist_km": 9.244438817799466
    },
    {
      "photo_id": "10082270546",
      "gt_lat": 47.102264,
      "gt_lon": -1.286945,
      "pred_country": "United States",
      "pred_city": "Los Angeles, United States",
      "pred_street": "New York City, New York",
      "pred_lat": 40.7127281,
      "pred_lon": -74.0060152,
      "dist_km": 5656.340790840049
    },
    {
      "photo_id": "2636860201",
      "gt_lat": 35.659109,
      "gt_lon": 139.754676,
      "pred_country": "Japan",
      "pred_city": "Tokyo, Japan",
      "pred_street": "Shinjuku, Tokyo",
      "pred_lat": 35.6937632,
      "pred_lon": 139.7036319,
      "dist_km": 6.008852011202737
    },
    {
      "photo_id": "8419450931",
      "gt_lat": 52.951165,
      "gt_lon": -1.151944,
      "pred_country": "United Kingdom",
      "pred_city": "London, United Kingdom",
      "pred_street": "London, United Kingdom",
      "pred_lat": 51.5074456,
      "pred_lon": -0.1277653,
      "dist_km": 175.0292593639331
    },
    {
      "photo_id": "5312496877",
      "gt_lat": 39.862783,
      "gt_lon": -4.025134,
      "pred_country": "Spain",
      "pred_city": "Toledo, Spain",
      "pred_street": "Toledo, Spain",
      "pred_lat": 39.8558913,
      "pred_lon": -4.024265,
      "dist_km": 0.7699034304393714
    },
    {
      "photo_id": "8253564394",
      "gt_lat": 53.339551,
      "gt_lon": -2.05719,
      "pred_country": "United Kingdom",
      "pred_city": "Yorkshire, England",
      "pred_street": "Yorkshire, United Kingdom",
      "pred_lat": 53.9825271,
      "pred_lon": -1.38525,
      "dist_km": 84.09321366353981
    },
    {
      "photo_id": "4349295488",
      "gt_lat": 51.496619,
      "gt_lon": -0.135778,
      "pred_country": "United Kingdom",
      "pred_city": "London, UK",
      "pred_street": "London, UK",
      "pred_lat": 51.5074456,
      "pred_lon": -0.1277653,
      "dist_km": 1.3254762769509325
    },
    {
      "photo_id": "2397482849",
      "gt_lat": 40.41098,
      "gt_lon": -3.693176,
      "pred_country": "United States",
      "pred_city": "London",
      "pred_street": "Los Angeles, USA",
      "pred_lat": 34.0536909,
      "pred_lon": -118.242766,
      "dist_km": 9363.571340455066
    },
    {
      "photo_id": "6789552601",
      "gt_lat": 23.151933,
      "gt_lon": 113.268236,
      "pred_country": "Japan",
      "pred_city": "Tokyo, Japan",
      "pred_street": "Tokyo, Japan",
      "pred_lat": 35.6768601,
      "pred_lon": 139.7638947,
      "dist_km": 2906.153593639814
    },
    {
      "photo_id": "8309889621",
      "gt_lat": 21.977434,
      "gt_lon": 100.754241,
      "pred_country": "India",
      "pred_city": "Singapore",
      "pred_street": "Kerala, India",
      "pred_lat": 10.3528744,
      "pred_lon": 76.5120396,
      "dist_km": 2887.399940773904
    },
    {
      "photo_id": "13137609893",
      "gt_lat": 45.502225,
      "gt_lon": -73.560473,
      "pred_country": "United Kingdom",
      "pred_city": "London, UK",
      "pred_street": "London, United Kingdom",
      "pred_lat": 51.5074456,
      "pred_lon": -0.1277653,
      "dist_km": 5220.360564132961
    },
    {
      "photo_id": "7887236728",
      "gt_lat": 34.883636,
      "gt_lon": -76.906099,
      "pred_country": "United States",
      "pred_city": "Washington, D.C.",
      "pred_street": "Washington, D.C.",
      "pred_lat": 38.8950982,
      "pred_lon": -77.0363849,
      "dist_km": 446.2045436241926
    },
    {
      "photo_id": "8791742443",
      "gt_lat": 39.2835,
      "gt_lon": -76.622334,
      "pred_country": "United States",
      "pred_city": "Baltimore, Maryland",
      "pred_street": "Baltimore, Maryland",
      "pred_lat": 39.2908816,
      "pred_lon": -76.610759,
      "dist_km": 1.2907658167785718
    },
    {
      "photo_id": "6178090349",
      "gt_lat": 30.286111,
      "gt_lon": -97.741389,
      "pred_country": "United States",
      "pred_city": "London",
      "pred_street": "New York City, USA",
      "pred_lat": 40.7127281,
      "pred_lon": -74.0060152,
      "dist_km": 2430.2667589048315
    },
    {
      "photo_id": "5623082341",
      "gt_lat": 37.411993,
      "gt_lon": -122.093081,
      "pred_country": "United States",
      "pred_city": "Los Angeles, California",
      "pred_street": "California",
      "pred_lat": 36.7014631,
      "pred_lon": -118.755997,
      "dist_km": 306.464756748087
    },
    {
      "photo_id": "5896609884",
      "gt_lat": 52.986968,
      "gt_lon": -2.131905,
      "pred_country": "United States",
      "pred_city": "Paris",
      "pred_street": "New York City, USA",
      "pred_lat": 40.7127281,
      "pred_lon": -74.0060152,
      "dist_km": 5391.474309030437
    },
    {
      "photo_id": "4732310112",
      "gt_lat": 38.591166,
      "gt_lon": -90.303667,
      "pred_country": "Canada",
      "pred_city": "Los Angeles",
      "pred_street": "Toronto, Canada",
      "pred_lat": 43.6534817,
      "pred_lon": -79.3839347,
      "dist_km": 1072.666385531081
    },
    {
      "photo_id": "8676997957",
      "gt_lat": 47.502626,
      "gt_lon": 19.034585,
      "pred_country": "Italy",
      "pred_city": "Moscow, Russia",
      "pred_street": "Florence, Italy",
      "pred_lat": 43.7697955,
      "pred_lon": 11.2556404,
      "dist_km": 732.9729481707069
    },
    {
      "photo_id": "241248152",
      "gt_lat": 51.12597,
      "gt_lon": -114.041111,
      "pred_country": "United States",
      "pred_city": "London Heathrow Airport",
      "pred_street": "Dallas/Fort Worth International Airport",
      "pred_lat": 32.8962506,
      "pred_lon": -97.0453389,
      "dist_km": 2452.894531435189
    },
    {
      "photo_id": "2766660672",
      "gt_lat": 55.814798,
      "gt_lon": -4.467315,
      "pred_country": "United Kingdom",
      "pred_city": "Glasgow, Scotland",
      "pred_street": "Glasgow, Scotland",
      "pred_lat": 55.861155,
      "pred_lon": -4.2501687,
      "dist_km": 14.505360313959692
    },
    {
      "photo_id": "5982428132",
      "gt_lat": 36.160854,
      "gt_lon": -86.777658,
      "pred_country": "United States",
      "pred_city": "New York City",
      "pred_street": "Broadway, New York City",
      "pred_lat": 40.8331497,
      "pred_lon": -73.9456863,
      "dist_km": 1230.0131743181723
    },
    {
      "photo_id": "8042343438",
      "gt_lat": 37.87807,
      "gt_lon": -122.303199,
      "pred_country": "United States",
      "pred_city": "Los Angeles",
      "pred_street": "Los Angeles, California",
      "pred_lat": 34.0536909,
      "pred_lon": -118.242766,
      "dist_km": 560.5620924533391
    },
    {
      "photo_id": "13323755075",
      "gt_lat": 30.912627,
      "gt_lon": -89.461412,
      "pred_country": "United States",
      "pred_city": "Rural area in the United States",
      "pred_street": "Rural area in the United States",
      "pred_lat": 39.7837304,
      "pred_lon": -100.445882,
      "dist_km": 1399.8356370482934
    },
    {
      "photo_id": "4820837489",
      "gt_lat": 31.790846,
      "gt_lon": 35.222307,
      "pred_country": "United States",
      "pred_city": "New York City",
      "pred_street": "United States, Washington D.C., Holocaust Memorial Museum",
      "pred_lat": 38.8866384,
      "pred_lon": -77.0327502,
      "dist_km": 9496.327908787567
    },
    {
      "photo_id": "5780747158",
      "gt_lat": 23.575666,
      "gt_lon": 119.576166,
      "pred_country": "United States",
      "pred_city": "New York, USA",
      "pred_street": "Florida",
      "pred_lat": 27.7567667,
      "pred_lon": -81.4639835,
      "dist_km": 13877.223466820855
    },
    {
      "photo_id": "7506210980",
      "gt_lat": 37.792083,
      "gt_lon": -122.458355,
      "pred_country": "United States",
      "pred_city": "Washington D.C.",
      "pred_street": "New York City",
      "pred_lat": 40.7127281,
      "pred_lon": -74.0060152,
      "dist_km": 4131.6455312349035
    },
    {
      "photo_id": "8800271528",
      "gt_lat": -37.388879,
      "gt_lon": 175.843777,
      "pred_country": "Australia",
      "pred_city": "Bingham Canyon Mine, Utah, USA",
      "pred_street": "Broken Hill, New South Wales, Australia",
      "pred_lat": -31.965,
      "pred_lon": 141.4511111,
      "dist_km": 3184.1038061049658
    },
    {
      "photo_id": "4654689459",
      "gt_lat": -35.324229,
      "gt_lon": -72.415351,
      "pred_country": "United States",
      "pred_city": "Los Angeles",
      "pred_street": "New York City",
      "pred_lat": 40.7127281,
      "pred_lon": -74.0060152,
      "dist_km": 8456.488349824645
    },
    {
      "photo_id": "4533053129",
      "gt_lat": 38.03621,
      "gt_lon": -78.497228,
      "pred_country": "United States",
      "pred_city": "New York City",
      "pred_street": "Los Angeles",
      "pred_lat": 34.0536909,
      "pred_lon": -118.242766,
      "dist_km": 3573.521391501792
    },
    {
      "photo_id": "12759068604",
      "gt_lat": -9.83289,
      "gt_lon": -39.486236,
      "pred_country": "India",
      "pred_city": "Lima, Peru",
      "pred_street": "Delhi, India",
      "pred_lat": 28.6138954,
      "pred_lon": 77.2090057,
      "dist_km": 13127.476932639642
    },
    {
      "photo_id": "2061249534",
      "gt_lat": 29.896019,
      "gt_lon": -81.322174,
      "pred_country": "United States",
      "pred_city": "New York City",
      "pred_street": "New York City",
      "pred_lat": 40.7127281,
      "pred_lon": -74.0060152,
      "dist_km": 1372.5623081953547
    },
    {
      "photo_id": "2497840790",
      "gt_lat": 42.270703,
      "gt_lon": 8.694305,
      "pred_country": "United States",
      "pred_city": "London",
      "pred_street": "Los Angeles, USA",
      "pred_lat": 34.0536909,
      "pred_lon": -118.242766,
      "dist_km": 9955.09408192066
    },
    {
      "photo_id": "13018413104",
      "gt_lat": 43.428271,
      "gt_lon": -7.363307,
      "pred_country": "Peru",
      "pred_city": "Cusco, Peru",
      "pred_street": "Cusco, Peru",
      "pred_lat": -13.5170887,
      "pred_lon": -71.9785356,
      "dist_km": 9099.604694496691
    },
    {
      "photo_id": "5484482393",
      "gt_lat": 37.909893,
      "gt_lon": -122.389805,
      "pred_country": "United States",
      "pred_city": "Deserted Beach",
      "pred_street": "Deserted Beach Area, California",
      "pred_lat": 39.7837304,
      "pred_lon": -100.445882,
      "dist_km": 1906.9360634835705
    },
    {
      "photo_id": "6877985988",
      "gt_lat": 46.8846,
      "gt_lon": 14.68048,
      "pred_country": "Mountains near the Arctic Circle",
      "pred_city": "Mountains at Sunset",
      "pred_street": "Mountains near the Arctic Circle, Norway",
      "pred_lat": 44.5938223,
      "pred_lon": -80.5134907,
      "dist_km": 6901.520941177045
    },
    {
      "photo_id": "5703013770",
      "gt_lat": -37.878579,
      "gt_lon": 144.604775,
      "pred_country": "Germany",
      "pred_city": "Germany",
      "pred_street": "Germany",
      "pred_lat": 51.1638175,
      "pred_lon": 10.4478313,
      "dist_km": 16167.059973780073
    },
    {
      "photo_id": "7822253820",
      "gt_lat": 59.887903,
      "gt_lon": 29.904785,
      "pred_country": "Russia",
      "pred_city": "Saint Petersburg, Russia",
      "pred_street": "Peterhof, Russia",
      "pred_lat": 59.881847,
      "pred_lon": 29.912041,
      "dist_km": 0.7857103236030077
    },
    {
      "photo_id": "3779988145",
      "gt_lat": 43.351283,
      "gt_lon": -3.012861,
      "pred_country": "Italy",
      "pred_city": "Barcelona, Spain",
      "pred_street": "Rome, Italy",
      "pred_lat": 41.8933203,
      "pred_lon": 12.4829321,
      "dist_km": 1276.3192063863974
    },
    {
      "photo_id": "6226079915",
      "gt_lat": 39.808536,
      "gt_lon": -86.412271,
      "pred_country": "United States",
      "pred_city": "New England, USA",
      "pred_street": "Golden Gate Park, San Francisco",
      "pred_lat": 37.7693681,
      "pred_lon": -122.4821837,
      "dist_km": 3113.3105993830336
    },
    {
      "photo_id": "5365150692",
      "gt_lat": 4.696365,
      "gt_lon": -74.02987,
      "pred_country": "Argentina",
      "pred_city": "Argentina",
      "pred_street": "San Telmo, Buenos Aires",
      "pred_lat": -34.6214013,
      "pred_lon": -58.37375,
      "dist_km": 4669.5213390377285
    },
    {
      "photo_id": "4272303739",
      "gt_lat": 37.744099,
      "gt_lon": -122.449407,
      "pred_country": "United States",
      "pred_city": "Los Angeles, California",
      "pred_street": "Los Angeles, California",
      "pred_lat": 34.0536909,
      "pred_lon": -118.242766,
      "dist_km": 558.4016318809838
    },
    {
      "photo_id": "3879157630",
      "gt_lat": -29.065,
      "gt_lon": 25.072333,
      "pred_country": "Kenya",
      "pred_city": "Kruger National Park, South Africa",
      "pred_street": "Masai Mara National Reserve",
      "pred_lat": -1.4881431,
      "pred_lon": 35.1054095,
      "dist_km": 3245.5042643348343
    },
    {
      "photo_id": "206952130",
      "gt_lat": 40.714638,
      "gt_lon": -74.011416,
      "pred_country": "United Kingdom",
      "pred_city": "Chicago",
      "pred_street": "East End of London, UK",
      "pred_lat": 51.6035098,
      "pred_lon": -0.1902965,
      "dist_km": 5562.995575599469
    },
    {
      "photo_id": "2760079853",
      "gt_lat": 40.719787,
      "gt_lon": -73.984703,
      "pred_country": "France",
      "pred_city": "Paris, France",
      "pred_street": "Paris",
      "pred_lat": 48.8534951,
      "pred_lon": 2.3483915,
      "dist_km": 5835.203731053612
    },
    {
      "photo_id": "6281827061",
      "gt_lat": 31.821564,
      "gt_lon": 35.202941,
      "pred_country": "Florida, USA",
      "pred_city": "Miami Beach, Florida",
      "pred_street": "St. Pete Beach, Florida",
      "pred_lat": 27.7253065,
      "pred_lon": -82.741212,
      "dist_km": 10691.53813227859
    },
    {
      "photo_id": "6575594273",
      "gt_lat": 50.819073,
      "gt_lon": 4.32659,
      "pred_country": "United States",
      "pred_city": "London",
      "pred_street": "Los Angeles, USA",
      "pred_lat": 34.0536909,
      "pred_lon": -118.242766,
      "dist_km": 9033.515547458306
    },
    {
      "photo_id": "3992606427",
      "gt_lat": 54.704391,
      "gt_lon": 20.502204,
      "pred_country": "Ireland",
      "pred_city": "London, UK",
      "pred_street": "Dublin, Ireland",
      "pred_lat": 53.3493795,
      "pred_lon": -6.2605593,
      "dist_km": 1743.831520062329
    },
    {
      "photo_id": "5653121597",
      "gt_lat": -37.82231,
      "gt_lon": 145.033779,
      "pred_country": "United States",
      "pred_city": "Los Angeles, California",
      "pred_street": "Downtown Los Angeles, California",
      "pred_lat": 34.0431787,
      "pred_lon": -118.2328067,
      "dist_km": 12769.25350525305
    },
    {
      "photo_id": "7854360534",
      "gt_lat": 43.361489,
      "gt_lon": -76.653869,
      "pred_country": "United Kingdom",
      "pred_city": "Medieval Festival in Germany",
      "pred_street": "Medieval Faire, United Kingdom",
      "pred_lat": 54.7023545,
      "pred_lon": -3.2765753,
      "dist_km": 5238.745081651663
    },
    {
      "photo_id": "2281241280",
      "gt_lat": 42.022924,
      "gt_lon": -88.076394,
      "pred_country": "Canada",
      "pred_city": "New York, USA",
      "pred_street": "Toronto, Canada",
      "pred_lat": 43.6534817,
      "pred_lon": -79.3839347,
      "dist_km": 731.1896143943
    },
    {
      "photo_id": "2098314512",
      "gt_lat": 25.09,
      "gt_lon": 121.854343,
      "pred_country": "Taiwan",
      "pred_city": "Taipei, Taiwan",
      "pred_street": "Taiwan",
      "pred_lat": 23.9739374,
      "pred_lon": 120.9820179,
      "dist_km": 152.27334814104836
    },
    {
      "photo_id": "5573741280",
      "gt_lat": 38.89793,
      "gt_lon": -77.021033,
      "pred_country": "Canada",
      "pred_city": "Toronto, Canada",
      "pred_street": "Toronto, Ontario",
      "pred_lat": 43.6534817,
      "pred_lon": -79.3839347,
      "dist_km": 564.3910112035528
    },
    {
      "photo_id": "4256363529",
      "gt_lat": 12.9558,
      "gt_lon": 77.620979,
      "pred_country": "United Kingdom",
      "pred_city": "New York City",
      "pred_street": "Manchester",
      "pred_lat": 53.4424618,
      "pred_lon": -2.2324547,
      "dist_km": 8183.895399844657
    },
    {
      "photo_id": "4649365193",
      "gt_lat": 47.2744,
      "gt_lon": 12.770883,
      "pred_country": "Austria",
      "pred_city": "Pinzgau, Austria",
      "pred_street": "Pinzgau, Austria",
      "pred_lat": 47.3591232,
      "pred_lon": 12.7767695,
      "dist_km": 9.431235150945248
    },
    {
      "photo_id": "5293335092",
      "gt_lat": -35.038394,
      "gt_lon": 138.516912,
      "pred_country": "United States",
      "pred_city": "Los Angeles",
      "pred_street": "New York City, USA",
      "pred_lat": 40.7127281,
      "pred_lon": -74.0060152,
      "dist_km": 17109.207963370423
    },
    {
      "photo_id": "8705970673",
      "gt_lat": 45.594176,
      "gt_lon": -122.690978,
      "pred_country": "Sweden",
      "pred_city": "Rally Finland",
      "pred_street": "\u00d6rebro, Sweden",
      "pred_lat": 59.2747287,
      "pred_lon": 15.2151181,
      "dist_km": 7737.419162882148
    },
    {
      "photo_id": "9991199243",
      "gt_lat": 35.104997,
      "gt_lon": -117.795045,
      "pred_country": "USA",
      "pred_city": "Yuma, Arizona",
      "pred_street": "White Sands Missile Range, New Mexico",
      "pred_lat": 33.0658459,
      "pred_lon": -106.545628,
      "dist_km": 1059.8654015737443
    },
    {
      "photo_id": "8660305609",
      "gt_lat": 51.6346,
      "gt_lon": 0.617948,
      "pred_country": "United Kingdom",
      "pred_city": "Wiltshire, England",
      "pred_street": "Rural area in the UK",
      "pred_lat": 51.324162,
      "pred_lon": -1.9032487,
      "dist_km": 177.9673307590018
    },
    {
      "photo_id": "6061957690",
      "gt_lat": 44.80024,
      "gt_lon": -93.600792,
      "pred_country": "United States",
      "pred_city": "Chicago, Illinois",
      "pred_street": "Suburban Neighborhood, United States",
      "pred_lat": 29.6648997,
      "pred_lon": -82.3891436,
      "dist_km": 1949.5518219268788
    },
    {
      "photo_id": "9352235220",
      "gt_lat": 52.411545,
      "gt_lon": -0.925907,
      "pred_country": "United States",
      "pred_city": "Circus Tent",
      "pred_street": "Circus Tent in a Park",
      "pred_lat": -41.4762303,
      "pred_lon": 145.2009081,
      "dist_km": 17204.70291140551
    },
    {
      "photo_id": "7927019126",
      "gt_lat": 50.896699,
      "gt_lon": -114.063481,
      "pred_country": "Canada",
      "pred_city": "Montreal, Canada",
      "pred_street": "Montreal, Quebec",
      "pred_lat": 45.5031824,
      "pred_lon": -73.5698065,
      "dist_km": 3020.6710510988732
    },
    {
      "photo_id": "5640596723",
      "gt_lat": 50.043746,
      "gt_lon": 8.045468,
      "pred_country": "United States",
      "pred_city": "Los Angeles",
      "pred_street": "New York City, USA",
      "pred_lat": 40.7127281,
      "pred_lon": -74.0060152,
      "dist_km": 6164.412487164111
    },
    {
      "photo_id": "4151523612",
      "gt_lat": 51.517849,
      "gt_lon": 7.335036,
      "pred_country": "United Kingdom",
      "pred_city": "Berlin, Germany",
      "pred_street": "Manchester, UK",
      "pred_lat": 53.4794892,
      "pred_lon": -2.2451148,
      "dist_km": 683.5774052519379
    },
    {
      "photo_id": "9177350502",
      "gt_lat": 37.795427,
      "gt_lon": -122.393628,
      "pred_country": "United States",
      "pred_city": "London, UK",
      "pred_street": "San Francisco, California",
      "pred_lat": 37.7879363,
      "pred_lon": -122.4075201,
      "dist_km": 1.4778066385103072
    },
    {
      "photo_id": "5131621775",
      "gt_lat": 45.880448,
      "gt_lon": 6.888084,
      "pred_country": "Aiguille du Midi, France",
      "pred_city": "Mont Blanc",
      "pred_street": "Aiguille du Midi, France",
      "pred_lat": 45.8787035,
      "pred_lon": 6.8875506,
      "dist_km": 0.1983254637562637
    },
    {
      "photo_id": "8555460190",
      "gt_lat": 41.564279,
      "gt_lon": 2.254836,
      "pred_country": "United States",
      "pred_city": "London",
      "pred_street": "Los Angeles, USA",
      "pred_lat": 34.0536909,
      "pred_lon": -118.242766,
      "dist_km": 9644.742466724012
    },
    {
      "photo_id": "2392139318",
      "gt_lat": 44.432308,
      "gt_lon": 8.745632,
      "pred_country": "Italy",
      "pred_city": "Genoa, Italy",
      "pred_street": "Genoa, Italy",
      "pred_lat": 44.40726,
      "pred_lon": 8.9338624,
      "dist_km": 15.206289649391142
    },
    {
      "photo_id": "5571756165",
      "gt_lat": 45.575525,
      "gt_lon": 10.005261,
      "pred_country": "United Kingdom",
      "pred_city": "London, UK",
      "pred_street": "London, UK",
      "pred_lat": 51.5074456,
      "pred_lon": -0.1277653,
      "dist_km": 994.1573888516006
    },
    {
      "photo_id": "5224241287",
      "gt_lat": 53.367458,
      "gt_lon": 13.058144,
      "pred_country": "Germany",
      "pred_city": "Berlin, Germany",
      "pred_street": "Brandenburg",
      "pred_lat": 52.8455492,
      "pred_lon": 13.2461296,
      "dist_km": 59.37476912623307
    },
    {
      "photo_id": "5917860223",
      "gt_lat": -1.200426,
      "gt_lon": 35.096855,
      "pred_country": "East Africa",
      "pred_city": "Nairobi, Kenya",
      "pred_street": "Nairobi National Park, Kenya",
      "pred_lat": -1.3745659,
      "pred_lon": 36.8397016,
      "dist_km": 194.71190502629318
    },
    {
      "photo_id": "5602061140",
      "gt_lat": 38.88993,
      "gt_lon": -77.009139,
      "pred_country": "United States",
      "pred_city": "Washington, D.C.",
      "pred_street": "United States, Washington D.C., Capitol Hill",
      "pred_lat": 38.8890009,
      "pred_lon": -77.0002537,
      "dist_km": 0.7759269773805559
    },
    {
      "photo_id": "5543245769",
      "gt_lat": 24.696563,
      "gt_lon": 121.765966,
      "pred_country": "Taiwan",
      "pred_city": "Taipei, Taiwan",
      "pred_street": "Taipei",
      "pred_lat": 25.0375198,
      "pred_lon": 121.5636796,
      "dist_km": 43.05631093513723
    },
    {
      "photo_id": "158078339",
      "gt_lat": 51.729898,
      "gt_lon": -1.206521,
      "pred_country": "United Kingdom",
      "pred_city": "London",
      "pred_street": "London, UK",
      "pred_lat": 51.5074456,
      "pred_lon": -0.1277653,
      "dist_km": 78.47667118559383
    },
    {
      "photo_id": "13069300583",
      "gt_lat": 50.880277,
      "gt_lon": 4.717877,
      "pred_country": "Germany",
      "pred_city": "Berlin, Germany",
      "pred_street": "Hamburg, Germany",
      "pred_lat": 53.5501721,
      "pred_lon": 10.0013165,
      "dist_km": 466.37579698077695
    },
    {
      "photo_id": "5568746908",
      "gt_lat": -31.633311,
      "gt_lon": -60.679492,
      "pred_country": "Southeast Asia",
      "pred_city": "Bangkok, Thailand",
      "pred_street": "Bangkok, Thailand",
      "pred_lat": 13.7524938,
      "pred_lon": 100.4935089,
      "dist_km": 17252.479813834387
    },
    {
      "photo_id": "6816649516",
      "gt_lat": 8.682851,
      "gt_lon": -83.49266,
      "pred_country": "Malaysia",
      "pred_city": "Singapore",
      "pred_street": "Penang, Malaysia",
      "pred_lat": 5.4065013,
      "pred_lon": 100.2559077,
      "dist_km": 18394.235769100356
    },
    {
      "photo_id": "5423842789",
      "gt_lat": 58.336616,
      "gt_lon": 26.310969,
      "pred_country": "Europe",
      "pred_city": "Prague, Czech Republic",
      "pred_street": "Slovakia",
      "pred_lat": 48.7411522,
      "pred_lon": 19.4528646,
      "dist_km": 1157.806575819494
    },
    {
      "photo_id": "5343703091",
      "gt_lat": 59.433357,
      "gt_lon": 24.744043,
      "pred_country": "Europe",
      "pred_city": "Prague, Czech Republic",
      "pred_street": "Berlin, Germany",
      "pred_lat": 52.5173885,
      "pred_lon": 13.3951309,
      "dist_km": 1041.2909765095976
    },
    {
      "photo_id": "5727544850",
      "gt_lat": 51.503834,
      "gt_lon": -0.097954,
      "pred_country": "United Kingdom",
      "pred_city": "London, UK",
      "pred_street": "Shoreditch, London",
      "pred_lat": 51.5266694,
      "pred_lon": -0.0798926,
      "dist_km": 2.830095150960828
    },
    {
      "photo_id": "2627541699",
      "gt_lat": 33.525368,
      "gt_lon": 36.304664,
      "pred_country": "Syria",
      "pred_city": "Amman, Jordan",
      "pred_street": "Damascus Gate, Damascus, Syria",
      "pred_lat": 31.9515694,
      "pred_lon": 35.9239625,
      "dist_km": 178.583771853288
    },
    {
      "photo_id": "5595998892",
      "gt_lat": 25.721044,
      "gt_lon": 32.600212,
      "pred_country": "Egypt",
      "pred_city": "Luxor, Egypt",
      "pred_street": "Luxor Temple",
      "pred_lat": 25.699525,
      "pred_lon": 32.6390695,
      "dist_km": 4.569567240424872
    },
    {
      "photo_id": "5219647169",
      "gt_lat": -33.091038,
      "gt_lon": 115.87778,
      "pred_country": "Australia",
      "pred_city": "Harvey, Western Australia",
      "pred_street": "Harvey, Western Australia",
      "pred_lat": -33.15052,
      "pred_lon": 115.9169603,
      "dist_km": 7.553800421234769
    },
    {
      "photo_id": "7808421746",
      "gt_lat": 15.974209,
      "gt_lon": 107.868041,
      "pred_country": "Vietnam",
      "pred_city": "Hoi An, Vietnam",
      "pred_street": "Hoi An, Vietnam",
      "pred_lat": 15.8880397,
      "pred_lon": 108.3367883,
      "dist_km": 51.02805369575003
    },
    {
      "photo_id": "3590761156",
      "gt_lat": 39.453152,
      "gt_lon": -0.347281,
      "pred_country": "United States",
      "pred_city": "Sydney, Australia",
      "pred_street": "New York City, New York",
      "pred_lat": 40.7127281,
      "pred_lon": -74.0060152,
      "dist_km": 6072.241232592953
    },
    {
      "photo_id": "4366063513",
      "gt_lat": 49.27494,
      "gt_lon": -123.122741,
      "pred_country": "United States",
      "pred_city": "New York City",
      "pred_street": "New York City",
      "pred_lat": 40.7127281,
      "pred_lon": -74.0060152,
      "dist_km": 3904.5683426707765
    },
    {
      "photo_id": "4737205492",
      "gt_lat": 42.035619,
      "gt_lon": -72.614006,
      "pred_country": "United States",
      "pred_city": "Six Flags Magic Mountain",
      "pred_street": "Six Flags Magic Mountain",
      "pred_lat": 34.4250568,
      "pred_lon": -118.5970454,
      "dist_km": 4054.3651635899178
    },
    {
      "photo_id": "9901727943",
      "gt_lat": 40.433794,
      "gt_lon": -3.710667,
      "pred_country": "Spain",
      "pred_city": "Madrid, Spain",
      "pred_street": "Madrid, Spain",
      "pred_lat": 40.416782,
      "pred_lon": -3.703507,
      "dist_km": 1.9863684692495673
    },
    {
      "photo_id": "3802854057",
      "gt_lat": -23.552526,
      "gt_lon": -46.658619,
      "pred_country": "Brazil",
      "pred_city": "Rio de Janeiro, Brazil",
      "pred_street": "S\u00e3o Paulo, Brazil",
      "pred_lat": -23.5506507,
      "pred_lon": -46.6333824,
      "dist_km": 2.5808665690341916
    },
    {
      "photo_id": "5082201444",
      "gt_lat": 36.127615,
      "gt_lon": -5.370984,
      "pred_country": "United States",
      "pred_city": "Mallorca, Spain",
      "pred_street": "San Francisco Bay Area, California",
      "pred_lat": 37.7884969,
      "pred_lon": -122.3558473,
      "dist_km": 9550.795547917565
    },
    {
      "photo_id": "6033697647",
      "gt_lat": 25.025655,
      "gt_lon": 121.529608,
      "pred_country": "United States",
      "pred_city": "New York City",
      "pred_street": "Los Angeles",
      "pred_lat": 34.0536909,
      "pred_lon": -118.242766,
      "dist_km": 10909.27589692376
    },
    {
      "photo_id": "7506510930",
      "gt_lat": 37.421844,
      "gt_lon": -122.115011,
      "pred_country": "United States",
      "pred_city": "New York City",
      "pred_street": "Golden Gate Park, San Francisco",
      "pred_lat": 37.7693681,
      "pred_lon": -122.4821837,
      "dist_km": 50.395857318822756
    },
    {
      "photo_id": "7978703060",
      "gt_lat": -38.479344,
      "gt_lon": 145.947854,
      "pred_country": "United States",
      "pred_city": "Sydney, Australia",
      "pred_street": "Los Angeles, California",
      "pred_lat": 34.0536909,
      "pred_lon": -118.242766,
      "dist_km": 12727.53085202186
    },
    {
      "photo_id": "3539325016",
      "gt_lat": 52.071994,
      "gt_lon": 17.008238,
      "pred_country": "United Kingdom",
      "pred_city": "London",
      "pred_street": "London, UK",
      "pred_lat": 51.5074456,
      "pred_lon": -0.1277653,
      "dist_km": 1177.5338307668046
    },
    {
      "photo_id": "8494535977",
      "gt_lat": 21.19468,
      "gt_lon": 94.896463,
      "pred_country": "India",
      "pred_city": "Cappadocia, Turkey",
      "pred_street": "Cappadocia, Turkey",
      "pred_lat": 38.6386124,
      "pred_lon": 34.8455184,
      "dist_km": 5992.44953235801
    },
    {
      "photo_id": "2708830005",
      "gt_lat": 38.889333,
      "gt_lon": -77.0915,
      "pred_country": "United States",
      "pred_city": "United States",
      "pred_street": "Backyard of a residential area in the United States",
      "pred_lat": 39.7837304,
      "pred_lon": -100.445882,
      "dist_km": 2005.2958258635504
    },
    {
      "photo_id": "6893776298",
      "gt_lat": -0.543079,
      "gt_lon": -77.88208,
      "pred_country": "Costa Rica",
      "pred_city": "Costa Rica",
      "pred_street": "Monteverde Cloud Forest Reserve",
      "pred_lat": 10.3036512,
      "pred_lon": -84.7877117,
      "dist_km": 1427.6715441051786
    },
    {
      "photo_id": "2292797583",
      "gt_lat": 42.14495,
      "gt_lon": 2.236061,
      "pred_country": "United Kingdom",
      "pred_city": "Forest of Dean, Gloucestershire, UK",
      "pred_street": "Devon, England",
      "pred_lat": 50.7241405,
      "pred_lon": -3.6607788,
      "dist_km": 1054.7562806594744
    },
    {
      "photo_id": "12420828",
      "gt_lat": 46.237654,
      "gt_lon": 6.048831,
      "pred_country": "Germany",
      "pred_city": "CERN (European Organization for Nuclear Research)",
      "pred_street": "Neurath, Germany",
      "pred_lat": 51.0392708,
      "pred_lon": 6.5937467,
      "dist_km": 535.4103798100527
    },
    {
      "photo_id": "1732276605",
      "gt_lat": 32.735321,
      "gt_lon": -117.148956,
      "pred_country": "China",
      "pred_city": "Chengdu, China",
      "pred_street": "Chengdu, Sichuan, China",
      "pred_lat": 30.659867,
      "pred_lon": 104.063315,
      "dist_km": 11739.951253337536
    },
    {
      "photo_id": "3712962511",
      "gt_lat": 40.272584,
      "gt_lon": -2.797908,
      "pred_country": "Australia",
      "pred_city": "Mountains of Spain",
      "pred_street": "Mount Gambier, South Australia",
      "pred_lat": -37.8301386,
      "pred_lon": 140.7842627,
      "dist_km": 16880.751539554465
    },
    {
      "photo_id": "8123140597",
      "gt_lat": 31.227333,
      "gt_lon": 121.48918,
      "pred_country": "China",
      "pred_city": "Shanghai, China",
      "pred_street": "Shanghai, China",
      "pred_lat": 31.2312707,
      "pred_lon": 121.4700152,
      "dist_km": 1.874106791669443
    },
    {
      "photo_id": "9580401173",
      "gt_lat": 52.528666,
      "gt_lon": 13.374166,
      "pred_country": "United States",
      "pred_city": "New York",
      "pred_street": "New York City",
      "pred_lat": 40.7127281,
      "pred_lon": -74.0060152,
      "dist_km": 6382.71272141737
    },
    {
      "photo_id": "3017502331",
      "gt_lat": 37.93516,
      "gt_lon": -122.639265,
      "pred_country": "Canada",
      "pred_city": "Algonquin Provincial Park, Canada",
      "pred_street": "Algonquin Provincial Park, Ontario, Canada",
      "pred_lat": 45.6571356,
      "pred_lon": -78.4995386,
      "dist_km": 3708.9301575867908
    },
    {
      "photo_id": "3740106362",
      "gt_lat": 35.193117,
      "gt_lon": -80.828561,
      "pred_country": "United States",
      "pred_city": "Washington, D.C.",
      "pred_street": "Washington, D.C.",
      "pred_lat": 38.8950982,
      "pred_lon": -77.0363849,
      "dist_km": 531.6046195087224
    },
    {
      "photo_id": "5726166691",
      "gt_lat": 5.317543,
      "gt_lon": 37.449474,
      "pred_country": "Kenya",
      "pred_city": "Kenya",
      "pred_street": "Nairobi",
      "pred_lat": -1.2890006,
      "pred_lon": 36.8172812,
      "dist_km": 737.9620200583255
    },
    {
      "photo_id": "9613242707",
      "gt_lat": 43.288335,
      "gt_lon": -1.838386,
      "pred_country": "United States",
      "pred_city": "New York City",
      "pred_street": "New England, United States",
      "pred_lat": 44.2057083,
      "pred_lon": -70.7537839,
      "dist_km": 5365.947355221208
    },
    {
      "photo_id": "3836478860",
      "gt_lat": 42.733608,
      "gt_lon": -84.547943,
      "pred_country": "United States",
      "pred_city": "Los Angeles",
      "pred_street": "New York City",
      "pred_lat": 40.7127281,
      "pred_lon": -74.0060152,
      "dist_km": 902.6182978115536
    },
    {
      "photo_id": "9253646781",
      "gt_lat": 48.973,
      "gt_lon": 2.515,
      "pred_country": "United States",
      "pred_city": "London",
      "pred_street": "New York City, USA",
      "pred_lat": 40.7127281,
      "pred_lon": -74.0060152,
      "dist_km": 5843.486320428539
    },
    {
      "photo_id": "13979394872",
      "gt_lat": 24.123833,
      "gt_lon": 120.492333,
      "pred_country": "Singapore",
      "pred_city": "Hong Kong",
      "pred_street": "Bishan",
      "pred_lat": 29.5730296,
      "pred_lon": 106.1686627,
      "dist_km": 1543.2501836835288
    },
    {
      "photo_id": "5947183906",
      "gt_lat": 48.004933,
      "gt_lon": 7.63436,
      "pred_country": "United States",
      "pred_city": "Beach in a temperate climate, possibly in the United States",
      "pred_street": "Beachside Park, Miami, Florida",
      "pred_lat": 39.7837304,
      "pred_lon": -100.445882,
      "dist_km": 7959.188073577481
    },
    {
      "photo_id": "6093950239",
      "gt_lat": 41.158826,
      "gt_lon": -8.630822,
      "pred_country": "United States",
      "pred_city": "Berlin, Germany",
      "pred_street": "Grand Central Terminal, New York City",
      "pred_lat": 40.7526944,
      "pred_lon": -73.977253,
      "dist_km": 5350.962007542422
    },
    {
      "photo_id": "11439370863",
      "gt_lat": 43.720063,
      "gt_lon": 7.275234,
      "pred_country": "France",
      "pred_city": "N\u00eemes, France",
      "pred_street": "Unknown",
      "pred_lat": 43.8374249,
      "pred_lon": 4.3600687,
      "dist_km": 234.3942726654008
    },
    {
      "photo_id": "3701992276",
      "gt_lat": 32.787166,
      "gt_lon": -96.772212,
      "pred_country": "United States",
      "pred_city": "Los Angeles, California",
      "pred_street": "Urban Residential Area, United States",
      "pred_lat": 29.7125312,
      "pred_lon": -95.5408634,
      "dist_km": 361.3574608273001
    },
    {
      "photo_id": "174030514",
      "gt_lat": -37.949003,
      "gt_lon": 145.533485,
      "pred_country": "United Kingdom",
      "pred_city": "London, UK",
      "pred_street": "London, United Kingdom",
      "pred_lat": 51.5074456,
      "pred_lon": -0.1277653,
      "dist_km": 16951.447409015884
    },
    {
      "photo_id": "4236605634",
      "gt_lat": 10.100326,
      "gt_lon": 99.826412,
      "pred_country": "Maldives",
      "pred_city": "Phuket, Thailand",
      "pred_street": "Maldives",
      "pred_lat": 3.7203503,
      "pred_lon": 73.2244152,
      "dist_km": 3019.0711089399056
    },
    {
      "photo_id": "230701555",
      "gt_lat": 42.341853,
      "gt_lon": -85.150501,
      "pred_country": "China",
      "pred_city": "New York City",
      "pred_street": "Beijing",
      "pred_lat": 39.9057136,
      "pred_lon": 116.3912972,
      "dist_km": 10615.54835025614
    },
    {
      "photo_id": "5883754368",
      "gt_lat": 33.895866,
      "gt_lon": -118.317083,
      "pred_country": "United States",
      "pred_city": "Los Angeles",
      "pred_street": "Los Angeles",
      "pred_lat": 34.0536909,
      "pred_lon": -118.242766,
      "dist_km": 18.839890813677307
    },
    {
      "photo_id": "4844697532",
      "gt_lat": 53.342231,
      "gt_lon": -1.541948,
      "pred_country": "United Kingdom",
      "pred_city": "London, UK",
      "pred_street": "London, UK",
      "pred_lat": 51.5074456,
      "pred_lon": -0.1277653,
      "dist_km": 225.41906967957124
    },
    {
      "photo_id": "7165555849",
      "gt_lat": 60.133822,
      "gt_lon": 24.510304,
      "pred_country": "Norway",
      "pred_city": "Oslo, Norway",
      "pred_street": "Bergen",
      "pred_lat": 60.3943055,
      "pred_lon": 5.3259192,
      "dist_km": 1054.7330700785571
    },
    {
      "photo_id": "1706121860",
      "gt_lat": 36.174946,
      "gt_lon": -86.773688,
      "pred_country": "United States",
      "pred_city": "Chicago",
      "pred_street": "New York City, USA",
      "pred_lat": 40.7127281,
      "pred_lon": -74.0060152,
      "dist_km": 1219.486279388926
    },
    {
      "photo_id": "4689929266",
      "gt_lat": 40.224269,
      "gt_lon": 116.422523,
      "pred_country": "China",
      "pred_city": "Beijing, China",
      "pred_street": "Beijing",
      "pred_lat": 39.9057136,
      "pred_lon": 116.3912972,
      "dist_km": 35.5212766659253
    },
    {
      "photo_id": "5795908807",
      "gt_lat": 29.935895,
      "gt_lon": -7.270202,
      "pred_country": "United States",
      "pred_city": "London",
      "pred_street": "Los Angeles, USA",
      "pred_lat": 34.0536909,
      "pred_lon": -118.242766,
      "dist_km": 9864.418083105977
    },
    {
      "photo_id": "7983462902",
      "gt_lat": 40.748472,
      "gt_lon": -73.9857,
      "pred_country": "United States",
      "pred_city": "New York City",
      "pred_street": "New York City",
      "pred_lat": 40.7127281,
      "pred_lon": -74.0060152,
      "dist_km": 4.327496335275747
    },
    {
      "photo_id": "7994520914",
      "gt_lat": 51.496833,
      "gt_lon": -0.210667,
      "pred_country": "Canada",
      "pred_city": "Comic-Con International (San Diego)",
      "pred_street": "Toronto, Canada",
      "pred_lat": 43.6534817,
      "pred_lon": -79.3839347,
      "dist_km": 5707.773859193905
    },
    {
      "photo_id": "3844614093",
      "gt_lat": 42.762137,
      "gt_lon": -7.23587,
      "pred_country": "France",
      "pred_city": "Mountains of the Alps",
      "pred_street": "Montagne des F\u00e9es, France",
      "pred_lat": 45.1958026,
      "pred_lon": 5.7336781,
      "dist_km": 1071.1419304826613
    },
    {
      "photo_id": "5381502622",
      "gt_lat": 43.297333,
      "gt_lon": -87.988,
      "pred_country": "United States",
      "pred_city": "Charleston, South Carolina",
      "pred_street": "Charleston, South Carolina",
      "pred_lat": 32.7884363,
      "pred_lon": -79.9399309,
      "dist_km": 1363.0570361896494
    },
    {
      "photo_id": "7727120100",
      "gt_lat": 36.141944,
      "gt_lon": -96.105431,
      "pred_country": "United States",
      "pred_city": "Denver, Colorado",
      "pred_street": "Roller derby event in the United States",
      "pred_lat": 39.7392364,
      "pred_lon": -104.984862,
      "dist_km": 874.8179089320477
    },
    {
      "photo_id": "4575331333",
      "gt_lat": 51.958758,
      "gt_lon": 1.347283,
      "pred_country": "United Kingdom",
      "pred_city": "Brighton, UK",
      "pred_street": "Bournemouth, United Kingdom",
      "pred_lat": 50.7446718,
      "pred_lon": -1.8579514,
      "dist_km": 260.2930570564253
    },
    {
      "photo_id": "3943096956",
      "gt_lat": 38.51152,
      "gt_lon": -89.988197,
      "pred_country": "United States",
      "pred_city": "New York City",
      "pred_street": "New York City, USA",
      "pred_lat": 40.7127281,
      "pred_lon": -74.0060152,
      "dist_km": 1388.738376556031
    },
    {
      "photo_id": "5202715329",
      "gt_lat": 38.913108,
      "gt_lon": -76.966266,
      "pred_country": "United Kingdom",
      "pred_city": "Singapore",
      "pred_street": "London, UK",
      "pred_lat": 51.5074456,
      "pred_lon": -0.1277653,
      "dist_km": 5892.554062343339
    },
    {
      "photo_id": "5486278354",
      "gt_lat": 50.380697,
      "gt_lon": 2.774047,
      "pred_country": "France",
      "pred_city": "Arras, France",
      "pred_street": "Givenchy-Lens, France",
      "pred_lat": 50.3914489,
      "pred_lon": 2.7723644,
      "dist_km": 1.2014937241531518
    },
    {
      "photo_id": "7615829634",
      "gt_lat": 41.234574,
      "gt_lon": 1.810877,
      "pred_country": "Spain",
      "pred_city": "Sant Feliu de Gu\u00edxols, Spain",
      "pred_street": "Sant Feliu de Gu\u00edxols, Spain",
      "pred_lat": 41.7838827,
      "pred_lon": 3.0283195,
      "dist_km": 118.35165464532096
    },
    {
      "photo_id": "6367970783",
      "gt_lat": 36.058833,
      "gt_lon": -112.084,
      "pred_country": "United States, Grand Canyon",
      "pred_city": "Grand Canyon National Park, Arizona, USA",
      "pred_street": "Grand Canyon National Park",
      "pred_lat": 36.3078548,
      "pred_lon": -112.292896,
      "dist_km": 33.439908269156085
    },
    {
      "photo_id": "2336543667",
      "gt_lat": 39.909143,
      "gt_lon": 116.269769,
      "pred_country": "United States",
      "pred_city": "New York City",
      "pred_street": "New York City, USA",
      "pred_lat": 40.7127281,
      "pred_lon": -74.0060152,
      "dist_km": 10990.17049070322
    },
    {
      "photo_id": "6145125720",
      "gt_lat": 43.529069,
      "gt_lon": -74.942162,
      "pred_country": "Canada",
      "pred_city": "Lake Placid, New York",
      "pred_street": "Algonquin Provincial Park, Ontario, Canada",
      "pred_lat": 45.6571356,
      "pred_lon": -78.4995386,
      "dist_km": 367.8198884494568
    },
    {
      "photo_id": "5581458562",
      "gt_lat": -31.82637,
      "gt_lon": -60.518598,
      "pred_country": "Canada",
      "pred_city": "Los Angeles",
      "pred_street": "Downtown Toronto",
      "pred_lat": 43.6573229,
      "pred_lon": -79.3810085,
      "dist_km": 8609.743782485653
    },
    {
      "photo_id": "8060735888",
      "gt_lat": 39.671124,
      "gt_lon": 19.700889,
      "pred_country": "Greece",
      "pred_city": "Athens, Greece",
      "pred_street": "Greek Orthodox Monastery",
      "pred_lat": 40.9057062,
      "pred_lon": 29.0502405,
      "dist_km": 804.3902207300997
    },
    {
      "photo_id": "10977505143",
      "gt_lat": 29.283976,
      "gt_lon": 48.060423,
      "pred_country": "United States",
      "pred_city": "San Francisco",
      "pred_street": "Los Angeles, California",
      "pred_lat": 34.0536909,
      "pred_lon": -118.242766,
      "dist_km": 12826.580628432293
    },
    {
      "photo_id": "8084276410",
      "gt_lat": 39.469325,
      "gt_lon": -3.535598,
      "pred_country": "Spain",
      "pred_city": "Ciudad Real, Castilla-La Mancha, Spain",
      "pred_street": "Ciudad Real, Castilla-La Mancha, Spain",
      "pred_lat": 38.9597347,
      "pred_lon": -3.8828744,
      "dist_km": 64.07726025966579
    },
    {
      "photo_id": "3260241052",
      "gt_lat": 44.85,
      "gt_lon": 9.866667,
      "pred_country": "Italy",
      "pred_city": "Verona, Italy",
      "pred_street": "Verona, Italy",
      "pred_lat": 45.4424977,
      "pred_lon": 10.9857377,
      "dist_km": 109.73898517095162
    },
    {
      "photo_id": "8601885748",
      "gt_lat": 36.832641,
      "gt_lon": -76.297706,
      "pred_country": "United States",
      "pred_city": "Atlanta, Georgia",
      "pred_street": "Hot Seat District, United States",
      "pred_lat": 33.7544657,
      "pred_lon": -84.3898151,
      "dist_km": 809.8781205613074
    },
    {
      "photo_id": "2632108654",
      "gt_lat": 48.299839,
      "gt_lon": 4.08039,
      "pred_country": "France",
      "pred_city": "Paris, France",
      "pred_street": "Notre-Dame Cathedral, Paris",
      "pred_lat": 48.8529371,
      "pred_lon": 2.3500501,
      "dist_km": 141.3726968698173
    },
    {
      "photo_id": "8718274328",
      "gt_lat": 32.530044,
      "gt_lon": -117.023148,
      "pred_country": "United States",
      "pred_city": "Amsterdam, Netherlands",
      "pred_street": "Washington, D.C.",
      "pred_lat": 38.8950982,
      "pred_lon": -77.0363849,
      "dist_km": 3648.988422843386
    },
    {
      "photo_id": "8438088552",
      "gt_lat": 15.876231,
      "gt_lon": 108.333048,
      "pred_country": "China",
      "pred_city": "Taipei, Taiwan",
      "pred_street": "Guangzhou, China",
      "pred_lat": 23.1288429,
      "pred_lon": 113.2589581,
      "dist_km": 957.30651078592
    },
    {
      "photo_id": "9588963220",
      "gt_lat": -37.815725,
      "gt_lon": 144.96506,
      "pred_country": "Japan",
      "pred_city": "Seoul, South Korea",
      "pred_street": "Tokyo, Japan",
      "pred_lat": 35.6768601,
      "pred_lon": 139.7638947,
      "dist_km": 8189.55292356953
    },
    {
      "photo_id": "5973729693",
      "gt_lat": 41.395431,
      "gt_lon": 2.161964,
      "pred_country": "United States",
      "pred_city": "Los Angeles",
      "pred_street": "Los Angeles, USA",
      "pred_lat": 34.0536909,
      "pred_lon": -118.242766,
      "dist_km": 9652.326922460228
    },
    {
      "photo_id": "3120411696",
      "gt_lat": 40.459039,
      "gt_lon": -3.465924,
      "pred_country": "Spain",
      "pred_city": "Madrid, Spain",
      "pred_street": "Madrid",
      "pred_lat": 40.416782,
      "pred_lon": -3.703507,
      "dist_km": 20.64872134667463
    },
    {
      "photo_id": "6336923118",
      "gt_lat": 35.728633,
      "gt_lon": 139.719754,
      "pred_country": "South Africa",
      "pred_city": "South Africa",
      "pred_street": "Cape Town",
      "pred_lat": -33.9288301,
      "pred_lon": 18.4172197,
      "dist_km": 14735.961795827501
    },
    {
      "photo_id": "6434535893",
      "gt_lat": 13.757732,
      "gt_lon": 100.640087,
      "pred_country": "Singapore",
      "pred_city": "Bangkok, Thailand",
      "pred_street": "Bugis, Singapore",
      "pred_lat": 1.299966,
      "pred_lon": 103.8552892,
      "dist_km": 1429.6821506074036
    },
    {
      "photo_id": "5032324949",
      "gt_lat": -27.471053,
      "gt_lon": 153.018651,
      "pred_country": "Australia",
      "pred_city": "Brisbane, Australia",
      "pred_street": "South Bank, Brisbane, Australia",
      "pred_lat": -27.4762827,
      "pred_lon": 153.0199491,
      "dist_km": 0.5954504876650333
    },
    {
      "photo_id": "11660259034",
      "gt_lat": -54.80191,
      "gt_lon": -68.30295,
      "pred_country": "Argentina",
      "pred_city": "Ushuaia, Argentina",
      "pred_street": "Ushuaia, Argentina",
      "pred_lat": -54.807306,
      "pred_lon": -68.3084133,
      "dist_km": 0.6946983294422814
    },
    {
      "photo_id": "5577601568",
      "gt_lat": 3.859025,
      "gt_lon": 73.453694,
      "pred_country": "Maldives",
      "pred_city": "Maldives",
      "pred_street": "Male, Maldives",
      "pred_lat": 4.1779879,
      "pred_lon": 73.5107387,
      "dist_km": 36.02706012836922
    },
    {
      "photo_id": "8302511102",
      "gt_lat": 40.767455,
      "gt_lon": -84.146581,
      "pred_country": "United States",
      "pred_city": "Chicago, Illinois",
      "pred_street": "Rural Highway",
      "pred_lat": 16.5238429,
      "pred_lon": 80.5960941,
      "dist_km": 13452.639889956223
    },
    {
      "photo_id": "3690477651",
      "gt_lat": 39.825899,
      "gt_lon": -86.185405,
      "pred_country": "United States",
      "pred_city": "Los Angeles",
      "pred_street": "New York City, United States",
      "pred_lat": 40.7127281,
      "pred_lon": -74.0060152,
      "dist_km": 1037.1912932011087
    },
    {
      "photo_id": "3097510577",
      "gt_lat": 45.133849,
      "gt_lon": 7.628333,
      "pred_country": "Italy",
      "pred_city": "Venice, Italy",
      "pred_street": "Piazza San Marco, Venice, Italy",
      "pred_lat": 45.4342571,
      "pred_lon": 12.3386717,
      "dist_km": 369.97458828417047
    },
    {
      "photo_id": "5161976937",
      "gt_lat": 51.700438,
      "gt_lon": 5.674781,
      "pred_country": "United States",
      "pred_city": "New York City",
      "pred_street": "Los Angeles, United States",
      "pred_lat": 34.0536909,
      "pred_lon": -118.242766,
      "dist_km": 9029.411304644154
    },
    {
      "photo_id": "5552028943",
      "gt_lat": 59.499916,
      "gt_lon": 17.600076,
      "pred_country": "Finland",
      "pred_city": "Lake Placid, New York",
      "pred_street": "Helsinki",
      "pred_lat": 60.1666204,
      "pred_lon": 24.9435408,
      "dist_km": 416.74803447680006
    },
    {
      "photo_id": "5100254219",
      "gt_lat": 41.387917,
      "gt_lon": 2.169919,
      "pred_country": "United States",
      "pred_city": "New York City",
      "pred_street": "New York City",
      "pred_lat": 40.7127281,
      "pred_lon": -74.0060152,
      "dist_km": 6165.71990215007
    },
    {
      "photo_id": "164961282",
      "gt_lat": 30.298875,
      "gt_lon": -97.76184,
      "pred_country": "United States",
      "pred_city": "Los Angeles",
      "pred_street": "Los Angeles, USA",
      "pred_lat": 34.0536909,
      "pred_lon": -118.242766,
      "dist_km": 1968.6905990556172
    },
    {
      "photo_id": "5872802098",
      "gt_lat": 52.504,
      "gt_lon": 13.333,
      "pred_country": "United States",
      "pred_city": "London",
      "pred_street": "Los Angeles, USA",
      "pred_lat": 34.0536909,
      "pred_lon": -118.242766,
      "dist_km": 9307.843455382228
    },
    {
      "photo_id": "8456755398",
      "gt_lat": 52.413519,
      "gt_lon": 13.090095,
      "pred_country": "Germany",
      "pred_city": "Berlin, Germany",
      "pred_street": "Berlin, Germany",
      "pred_lat": 52.5173885,
      "pred_lon": 13.3951309,
      "dist_km": 23.673099238703
    },
    {
      "photo_id": "9090879865",
      "gt_lat": 36.36743,
      "gt_lon": 10.53556,
      "pred_country": "Morocco",
      "pred_city": "Cairo, Egypt",
      "pred_street": "Casablanca",
      "pred_lat": 33.5945144,
      "pred_lon": -7.6200284,
      "dist_km": 1679.9455650411867
    },
    {
      "photo_id": "6200440829",
      "gt_lat": 48.693339,
      "gt_lon": 6.184213,
      "pred_country": "Europe",
      "pred_city": "Berlin, Germany",
      "pred_street": "Paris, France",
      "pred_lat": 48.8534951,
      "pred_lon": 2.3483915,
      "dist_km": 281.62912483622205
    },
    {
      "photo_id": "7948787006",
      "gt_lat": 42.150423,
      "gt_lon": 0.229339,
      "pred_country": "United Kingdom",
      "pred_city": "New Orleans, USA",
      "pred_street": "London, United Kingdom",
      "pred_lat": 51.5074456,
      "pred_lon": -0.1277653,
      "dist_km": 1040.8045881127318
    },
    {
      "photo_id": "11227499375",
      "gt_lat": 52.379646,
      "gt_lon": 4.594581,
      "pred_country": "United Kingdom",
      "pred_city": "Chatsworth House, England",
      "pred_street": "Woburn Abbey, Bedfordshire, United Kingdom",
      "pred_lat": 51.9828926,
      "pred_lon": -0.5968837,
      "dist_km": 356.61815591923846
    },
    {
      "photo_id": "3405277734",
      "gt_lat": 45.25523,
      "gt_lon": 5.02706,
      "pred_country": "Italy",
      "pred_city": "Rome, Italy",
      "pred_street": "Capri, Italy",
      "pred_lat": 40.5488429,
      "pred_lon": 14.2283708,
      "dist_km": 913.1697774928246
    },
    {
      "photo_id": "5112083883",
      "gt_lat": 35.640593,
      "gt_lon": 139.403017,
      "pred_country": "United Kingdom",
      "pred_city": "University of Oxford, UK",
      "pred_street": "University of Cambridge, UK",
      "pred_lat": 52.1890916,
      "pred_lon": 0.1212977,
      "dist_km": 9479.82275178644
    },
    {
      "photo_id": "7570415532",
      "gt_lat": 36.841232,
      "gt_lon": 126.190595,
      "pred_country": "Japan",
      "pred_city": "Sarasota, Florida, USA",
      "pred_street": "Kagoshima Prefecture, Japan",
      "pred_lat": 31.521587,
      "pred_lon": 130.5474077,
      "dist_km": 714.2909846727018
    },
    {
      "photo_id": "8478395761",
      "gt_lat": 44.138801,
      "gt_lon": 12.243629,
      "pred_country": "Italy",
      "pred_city": "Florence, Italy",
      "pred_street": "Florence, Italy",
      "pred_lat": 43.7697955,
      "pred_lon": 11.2556404,
      "dist_km": 89.0965133361183
    },
    {
      "photo_id": "2356540937",
      "gt_lat": 19.155546,
      "gt_lon": -96.144447,
      "pred_country": "Costa Rica",
      "pred_city": "Cartagena, Colombia",
      "pred_street": "Puntarenas",
      "pred_lat": 9.095328,
      "pred_lon": -84.2003038,
      "dist_km": 1704.3460662998414
    },
    {
      "photo_id": "5558253851",
      "gt_lat": -11.402797,
      "gt_lon": -40.128765,
      "pred_country": "Brazil",
      "pred_city": "S\u00e3o Paulo, Brazil",
      "pred_street": "S\u00e3o Paulo",
      "pred_lat": -23.5506507,
      "pred_lon": -46.6333824,
      "dist_km": 1515.9798885182106
    },
    {
      "photo_id": "5079452106",
      "gt_lat": 40.701658,
      "gt_lon": -73.949875,
      "pred_country": "United States",
      "pred_city": "Los Angeles",
      "pred_street": "Audio Engineering District, Los Angeles, California",
      "pred_lat": 34.0536909,
      "pred_lon": -118.242766,
      "dist_km": 3940.401221287327
    },
    {
      "photo_id": "5292540094",
      "gt_lat": 29.996422,
      "gt_lon": 31.228458,
      "pred_country": "Libya",
      "pred_city": "Amman, Jordan",
      "pred_street": "Tripoli International Airport",
      "pred_lat": 32.6684925,
      "pred_lon": 13.149414,
      "dist_km": 1740.4053737599154
    },
    {
      "photo_id": "2370108583",
      "gt_lat": 33.566983,
      "gt_lon": 133.5436,
      "pred_country": "Japan",
      "pred_city": "Tokyo, Japan",
      "pred_street": "Osaka",
      "pred_lat": 34.6937569,
      "pred_lon": 135.5014539,
      "dist_km": 219.47435827252446
    },
    {
      "photo_id": "7127688987",
      "gt_lat": 32.247941,
      "gt_lon": 119.467391,
      "pred_country": "United States",
      "pred_city": "Los Angeles",
      "pred_street": "New York City, United States",
      "pred_lat": 40.7127281,
      "pred_lon": -74.0060152,
      "dist_km": 11784.9880716589
    },
    {
      "photo_id": "8174930098",
      "gt_lat": 48.86169,
      "gt_lon": 2.333102,
      "pred_country": "Paris, France",
      "pred_city": "Paris, France",
      "pred_street": "Jardin des Tuileries",
      "pred_lat": 48.8635662,
      "pred_lon": 2.3269552,
      "dist_km": 0.4956879676287358
    },
    {
      "photo_id": "5694916102",
      "gt_lat": 45.532188,
      "gt_lon": -122.684791,
      "pred_country": "United States",
      "pred_city": "New York City",
      "pred_street": "New York City, USA",
      "pred_lat": 40.7127281,
      "pred_lon": -74.0060152,
      "dist_km": 3925.8105002562615
    },
    {
      "photo_id": "10728351393",
      "gt_lat": -12.943729,
      "gt_lon": -38.431142,
      "pred_country": "United States",
      "pred_city": "Washington D.C.",
      "pred_street": "Washington D.C.",
      "pred_lat": 38.8950982,
      "pred_lon": -77.0363849,
      "dist_km": 7018.711190353828
    },
    {
      "photo_id": "8100527460",
      "gt_lat": 53.951489,
      "gt_lon": -0.882554,
      "pred_country": "United States",
      "pred_city": "Los Angeles",
      "pred_street": "Central Park, New York City",
      "pred_lat": 40.7827725,
      "pred_lon": -73.9653627,
      "dist_km": 5434.015441432137
    },
    {
      "photo_id": "5877470597",
      "gt_lat": 45.085429,
      "gt_lon": -85.323429,
      "pred_country": "China",
      "pred_city": "Singapore",
      "pred_street": "Guangzhou, China",
      "pred_lat": 23.1288429,
      "pred_lon": 113.2589581,
      "dist_km": 12199.374972823003
    },
    {
      "photo_id": "2498375715",
      "gt_lat": 31.104685,
      "gt_lon": 77.177581,
      "pred_country": "India",
      "pred_city": "Manila, Philippines",
      "pred_street": "Mumbai, India",
      "pred_lat": 19.054999,
      "pred_lon": 72.8692035,
      "dist_km": 1407.9553419175145
    },
    {
      "photo_id": "6930261843",
      "gt_lat": 40.669722,
      "gt_lon": -73.893056,
      "pred_country": "United States",
      "pred_city": "New York City",
      "pred_street": "New York City",
      "pred_lat": 40.7127281,
      "pred_lon": -74.0060152,
      "dist_km": 10.656955777865953
    },
    {
      "photo_id": "3922398702",
      "gt_lat": -7.78141,
      "gt_lon": 110.354232,
      "pred_country": "Indonesia",
      "pred_city": "Java, Indonesia",
      "pred_street": "Java, Indonesia",
      "pred_lat": -6.7115076,
      "pred_lon": 110.6337137,
      "dist_km": 122.89710982088958
    },
    {
      "photo_id": "6276252638",
      "gt_lat": 59.617942,
      "gt_lon": 17.717857,
      "pred_country": "Europe",
      "pred_city": "Rome, Italy",
      "pred_street": "Vienna, Austria",
      "pred_lat": 48.2083537,
      "pred_lon": 16.3725042,
      "dist_km": 1271.6771910806772
    },
    {
      "photo_id": "8603260545",
      "gt_lat": 39.632488,
      "gt_lon": 2.457127,
      "pred_country": "Central Africa",
      "pred_city": "Wakanda",
      "pred_street": "Unknown",
      "pred_lat": 13.7587356,
      "pred_lon": 100.4982549,
      "dist_km": 9707.585105846674
    },
    {
      "photo_id": "5775790259",
      "gt_lat": 38.99739,
      "gt_lon": -108.740951,
      "pred_country": "United States",
      "pred_city": "Rural Area, USA",
      "pred_street": "Rural area, possibly in a small town or countryside, United States",
      "pred_lat": 40.2210348,
      "pred_lon": -85.4327288,
      "dist_km": 1995.5974238210165
    },
    {
      "photo_id": "2206311719",
      "gt_lat": -10.768555,
      "gt_lon": 37.30957,
      "pred_country": "Nigeria",
      "pred_city": "Kampala, Uganda",
      "pred_street": "Kaduna State, Nigeria",
      "pred_lat": 10.3825318,
      "pred_lon": 7.8533226,
      "dist_km": 4017.06083908366
    },
    {
      "photo_id": "6318333539",
      "gt_lat": 41.290758,
      "gt_lon": -82.21763,
      "pred_country": "United States",
      "pred_city": "San Francisco",
      "pred_street": "San Francisco",
      "pred_lat": 37.7879363,
      "pred_lon": -122.4075201,
      "dist_km": 3437.442795120522
    },
    {
      "photo_id": "3106830959",
      "gt_lat": 40.763023,
      "gt_lon": -74.001739,
      "pred_country": "United States",
      "pred_city": "New York City",
      "pred_street": "George Washington Bridge, New York City",
      "pred_lat": 40.8490951,
      "pred_lon": -73.941684,
      "dist_km": 10.82353447154461
    },
    {
      "photo_id": "5249924279",
      "gt_lat": -36.780829,
      "gt_lon": 174.830267,
      "pred_country": "New Zealand",
      "pred_city": "New Zealand",
      "pred_street": "Auckland, New Zealand",
      "pred_lat": -36.852095,
      "pred_lon": 174.7631803,
      "dist_km": 9.922719169108946
    },
    {
      "photo_id": "4436578151",
      "gt_lat": -10.801691,
      "gt_lon": -37.171726,
      "pred_country": "Africa",
      "pred_city": "New York City",
      "pred_street": "Dar es Salaam, Tanzania",
      "pred_lat": -6.8160837,
      "pred_lon": 39.2803583,
      "dist_km": 8392.95435331033
    },
    {
      "photo_id": "2542447344",
      "gt_lat": 39.542945,
      "gt_lon": -104.920248,
      "pred_country": "United States",
      "pred_city": "Los Angeles",
      "pred_street": "Central Park, New York City",
      "pred_lat": 40.7827725,
      "pred_lon": -73.9653627,
      "dist_km": 2620.396388010714
    },
    {
      "photo_id": "14010060531",
      "gt_lat": 33.887455,
      "gt_lon": -118.269303,
      "pred_country": "United States",
      "pred_city": "Los Angeles, California",
      "pred_street": "California, USA",
      "pred_lat": 36.7014631,
      "pred_lon": -118.755997,
      "dist_km": 316.0041392352354
    },
    {
      "photo_id": "12624585124",
      "gt_lat": 39.891916,
      "gt_lon": -75.251133,
      "pred_country": "United States",
      "pred_city": "New York City",
      "pred_street": "Los Angeles",
      "pred_lat": 34.0536909,
      "pred_lon": -118.242766,
      "dist_km": 3836.486816736417
    },
    {
      "photo_id": "8562780685",
      "gt_lat": 27.741732,
      "gt_lon": -80.448932,
      "pred_country": "United States",
      "pred_city": "Santa Cruz, California",
      "pred_street": "Coney Island, Brooklyn, New York",
      "pred_lat": 40.5765081,
      "pred_lon": -73.9929419,
      "dist_km": 1544.6738503495844
    },
    {
      "photo_id": "12733208643",
      "gt_lat": 51.431069,
      "gt_lon": -2.675471,
      "pred_country": "United Kingdom",
      "pred_city": "London, UK",
      "pred_street": "Cotswolds, Gloucestershire, UK",
      "pred_lat": 51.7265325,
      "pred_lon": -2.0880929,
      "dist_km": 52.21842745494267
    },
    {
      "photo_id": "339789508",
      "gt_lat": 40.658357,
      "gt_lon": -73.973071,
      "pred_country": "Canada",
      "pred_city": "Canada",
      "pred_street": "Canada",
      "pred_lat": 61.0666922,
      "pred_lon": -107.991707,
      "dist_km": 3227.2771776603
    },
    {
      "photo_id": "3852312013",
      "gt_lat": 38.900652,
      "gt_lon": -9.037628,
      "pred_country": "United States",
      "pred_city": "Los Angeles, California",
      "pred_street": "Edwards Air Force Base, California",
      "pred_lat": 34.9119057,
      "pred_lon": -117.8832412,
      "dist_km": 9027.296541659442
    },
    {
      "photo_id": "9560329818",
      "gt_lat": 31.43006,
      "gt_lon": -100.502923,
      "pred_country": "United States",
      "pred_city": "United States",
      "pred_street": "Grocery Store in the United States",
      "pred_lat": 39.7837304,
      "pred_lon": -100.445882,
      "dist_km": 928.9000169435635
    },
    {
      "photo_id": "6945202165",
      "gt_lat": 40.433791,
      "gt_lon": -3.611392,
      "pred_country": "United States",
      "pred_city": "New York City",
      "pred_street": "New York City, USA",
      "pred_lat": 40.7127281,
      "pred_lon": -74.0060152,
      "dist_km": 5774.308857089658
    },
    {
      "photo_id": "6707881119",
      "gt_lat": 51.459542,
      "gt_lon": -0.946455,
      "pred_country": "United States",
      "pred_city": "New York (JFK Airport)",
      "pred_street": "Washington, D.C.",
      "pred_lat": 38.8950982,
      "pred_lon": -77.0363849,
      "dist_km": 5846.272528015739
    },
    {
      "photo_id": "191684963",
      "gt_lat": 42.300159,
      "gt_lon": -71.104934,
      "pred_country": "United States",
      "pred_city": "Boston, Massachusetts",
      "pred_street": "Mount Auburn Cemetery, Cambridge, Massachusetts",
      "pred_lat": 42.370697,
      "pred_lon": -71.1440117,
      "dist_km": 8.475692134879251
    },
    {
      "photo_id": "4397112488",
      "gt_lat": 40.75448,
      "gt_lon": -73.886945,
      "pred_country": "United States",
      "pred_city": "New York City",
      "pred_street": "New York City",
      "pred_lat": 40.7127281,
      "pred_lon": -74.0060152,
      "dist_km": 11.05474833823765
    },
    {
      "photo_id": "5380773202",
      "gt_lat": 46.49916,
      "gt_lon": 7.547264,
      "pred_country": "Europe",
      "pred_city": "London",
      "pred_street": "London, UK",
      "pred_lat": 51.5074456,
      "pred_lon": -0.1277653,
      "dist_km": 788.8703690990728
    },
    {
      "photo_id": "5042025731",
      "gt_lat": 40.477769,
      "gt_lon": -3.668231,
      "pred_country": "United States",
      "pred_city": "New York, USA",
      "pred_street": "Super Saver Store",
      "pred_lat": 51.4897629,
      "pred_lon": -2.6770901,
      "dist_km": 1226.8391428482887
    },
    {
      "photo_id": "2756182249",
      "gt_lat": 42.038074,
      "gt_lon": -91.59645,
      "pred_country": "United States",
      "pred_city": "Los Angeles",
      "pred_street": "Los Angeles",
      "pred_lat": 34.0536909,
      "pred_lon": -118.242766,
      "dist_km": 2483.965748287215
    },
    {
      "photo_id": "12735373403",
      "gt_lat": 40.019,
      "gt_lon": -105.274,
      "pred_country": "United States",
      "pred_city": "San Francisco, California",
      "pred_street": "San Francisco",
      "pred_lat": 37.7879363,
      "pred_lon": -122.4075201,
      "dist_km": 1500.7852364585437
    },
    {
      "photo_id": "6199618095",
      "gt_lat": 32.793964,
      "gt_lon": -96.800262,
      "pred_country": "United States",
      "pred_city": "Los Angeles",
      "pred_street": "Residential Neighborhood, United States",
      "pred_lat": 33.4937913,
      "pred_lon": -111.9837142,
      "dist_km": 1414.5129530385648
    },
    {
      "photo_id": "1668116260",
      "gt_lat": -33.854504,
      "gt_lon": 151.217429,
      "pred_country": "Australia",
      "pred_city": "Sydney, Australia",
      "pred_street": "Sydney Harbour Bridge, Sydney, Australia",
      "pred_lat": -33.8521165,
      "pred_lon": 151.2107812,
      "dist_km": 0.6688272310122675
    },
    {
      "photo_id": "12902149745",
      "gt_lat": 40.683166,
      "gt_lon": -73.97375,
      "pred_country": "United States",
      "pred_city": "Chicago",
      "pred_street": "Chicago, Illinois",
      "pred_lat": 41.8755616,
      "pred_lon": -87.6244212,
      "dist_km": 1147.1358828828666
    },
    {
      "photo_id": "7571120338",
      "gt_lat": 0.194091,
      "gt_lon": -78.290176,
      "pred_country": "Costa Rica",
      "pred_city": "Hawaii",
      "pred_street": "Monteverde Cloud Forest Reserve",
      "pred_lat": 10.3036512,
      "pred_lon": -84.7877117,
      "dist_km": 1334.1353806362972
    },
    {
      "photo_id": "8040917880",
      "gt_lat": 39.464552,
      "gt_lon": -3.529881,
      "pred_country": "Spain",
      "pred_city": "Madrid, Spain",
      "pred_street": "Madrid, Spain",
      "pred_lat": 40.416782,
      "pred_lon": -3.703507,
      "dist_km": 106.91274127536195
    },
    {
      "photo_id": "2147844654",
      "gt_lat": 17.067615,
      "gt_lon": -96.713333,
      "pred_country": "Philippines",
      "pred_city": "Cusco, Peru",
      "pred_street": "Manila",
      "pred_lat": 14.5904492,
      "pred_lon": 120.9803621,
      "dist_km": 14583.888593827463
    },
    {
      "photo_id": "5655200189",
      "gt_lat": 32.907238,
      "gt_lon": -96.829643,
      "pred_country": "United States",
      "pred_city": "New York",
      "pred_street": "Chicago",
      "pred_lat": 41.8755616,
      "pred_lon": -87.6244212,
      "dist_km": 1285.1364309259102
    },
    {
      "photo_id": "8491365089",
      "gt_lat": 11.549325,
      "gt_lon": 104.889221,
      "pred_country": "Cambodia",
      "pred_city": "Tehran, Iran",
      "pred_street": "Tuol Sleng Genocide Museum, Phnom Penh, Cambodia",
      "pred_lat": 11.5494532,
      "pred_lon": 104.9176255,
      "dist_km": 3.0945186402731966
    },
    {
      "photo_id": "5208184891",
      "gt_lat": 51.527499,
      "gt_lon": -0.081678,
      "pred_country": "Belgium",
      "pred_city": "Belgium",
      "pred_street": "Brussels",
      "pred_lat": 50.8467372,
      "pred_lon": 4.352493,
      "dist_km": 318.1183303310331
    },
    {
      "photo_id": "5077445230",
      "gt_lat": 42.396174,
      "gt_lon": -71.121541,
      "pred_country": "United States",
      "pred_city": "Mexico City",
      "pred_street": "Mexico City, Mexico",
      "pred_lat": 19.3207722,
      "pred_lon": -99.1514678,
      "dist_km": 3674.4191829945826
    },
    {
      "photo_id": "8568316875",
      "gt_lat": 6.233893,
      "gt_lon": -75.162193,
      "pred_country": "Brazil",
      "pred_city": "Rio de Janeiro, Brazil",
      "pred_street": "Rio de Janeiro",
      "pred_lat": -22.9110137,
      "pred_lon": -43.2093727,
      "dist_km": 4750.478645890633
    },
    {
      "photo_id": "5470807308",
      "gt_lat": 29.31015,
      "gt_lon": 47.494449,
      "pred_country": "Saudi Arabia",
      "pred_city": "Doha, Qatar",
      "pred_street": "Riyadh",
      "pred_lat": 24.638916,
      "pred_lon": 46.7160104,
      "dist_km": 525.1090428214197
    },
    {
      "photo_id": "6327114677",
      "gt_lat": 40.7485,
      "gt_lon": -73.919667,
      "pred_country": "United States",
      "pred_city": "New York City",
      "pred_street": "New York City, USA",
      "pred_lat": 40.7127281,
      "pred_lon": -74.0060152,
      "dist_km": 8.29216220435399
    },
    {
      "photo_id": "5184718940",
      "gt_lat": 52.243079,
      "gt_lon": 21.016212,
      "pred_country": "Russia",
      "pred_city": "Brussels, Belgium",
      "pred_street": "Moscow, Russia",
      "pred_lat": 55.625578,
      "pred_lon": 37.6063916,
      "dist_km": 1145.9688801849134
    },
    {
      "photo_id": "8073622102",
      "gt_lat": 51.028919,
      "gt_lon": 4.485439,
      "pred_country": "Netherlands",
      "pred_city": "Copenhagen, Denmark",
      "pred_street": "Delft, Netherlands",
      "pred_lat": 51.9994572,
      "pred_lon": 4.3627245,
      "dist_km": 108.25245203735784
    },
    {
      "photo_id": "6977833678",
      "gt_lat": 48.472921,
      "gt_lon": 14.15039,
      "pred_country": "United States",
      "pred_city": "Washington D.C.",
      "pred_street": "Washington, D.C.",
      "pred_lat": 38.8950982,
      "pred_lon": -77.0363849,
      "dist_km": 6966.662625516352
    },
    {
      "photo_id": "4659612993",
      "gt_lat": 34.182511,
      "gt_lon": -118.478167,
      "pred_country": "United States",
      "pred_city": "California, USA",
      "pred_street": "California",
      "pred_lat": 36.7014631,
      "pred_lon": -118.755997,
      "dist_km": 281.22277881942153
    },
    {
      "photo_id": "3951077494",
      "gt_lat": 24.668858,
      "gt_lon": 121.656074,
      "pred_country": "Japan",
      "pred_city": "Seoul, South Korea",
      "pred_street": "Kyoto",
      "pred_lat": 35.0115754,
      "pred_lon": 135.7681441,
      "dist_km": 1778.4788876109383
    },
    {
      "photo_id": "5814167167",
      "gt_lat": -8.586792,
      "gt_lon": 115.124359,
      "pred_country": "Mexico",
      "pred_city": "Manila, Philippines",
      "pred_street": "Mexico City",
      "pred_lat": 19.3207722,
      "pred_lon": -99.1514678,
      "dist_km": 16137.772278119732
    },
    {
      "photo_id": "5486480999",
      "gt_lat": 43.860286,
      "gt_lon": -79.433708,
      "pred_country": "United States",
      "pred_city": "Unionville, Canada",
      "pred_street": "Unionville, New Jersey",
      "pred_lat": 40.0053896,
      "pred_lon": -74.764606,
      "dist_km": 576.7869190012851
    },
    {
      "photo_id": "6164193136",
      "gt_lat": 26.123075,
      "gt_lon": -80.166206,
      "pred_country": "Thailand",
      "pred_city": "Bangkok, Thailand",
      "pred_street": "Bangkok",
      "pred_lat": 13.7524938,
      "pred_lon": 100.4935089,
      "dist_km": 15580.551405014712
    },
    {
      "photo_id": "4649954569",
      "gt_lat": 40.647938,
      "gt_lon": 22.953958,
      "pred_country": "Brazil",
      "pred_city": "Rio de Janeiro, Brazil",
      "pred_street": "Rio de Janeiro",
      "pred_lat": -22.9110137,
      "pred_lon": -43.2093727,
      "dist_km": 9823.771725807339
    },
    {
      "photo_id": "2095666323",
      "gt_lat": 42.373916,
      "gt_lon": -71.120109,
      "pred_country": "United States",
      "pred_city": "London, UK",
      "pred_street": "New York City",
      "pred_lat": 40.7127281,
      "pred_lon": -74.0060152,
      "dist_km": 302.9624648170148
    },
    {
      "photo_id": "5628690825",
      "gt_lat": 42.847181,
      "gt_lon": -8.576631,
      "pred_country": "Europe",
      "pred_city": "Berlin, Germany",
      "pred_street": "Berlin, Germany",
      "pred_lat": 52.5173885,
      "pred_lon": 13.3951309,
      "dist_km": 1952.9022613957313
    },
    {
      "photo_id": "9674376669",
      "gt_lat": 12.191717,
      "gt_lon": -68.298525,
      "pred_country": "Indonesia",
      "pred_city": "Indonesia",
      "pred_street": "Komodo National Park, Indonesia",
      "pred_lat": -8.6069899,
      "pred_lon": 119.5729395,
      "dist_km": 19066.555908498027
    },
    {
      "photo_id": "3933613224",
      "gt_lat": 22.281295,
      "gt_lon": 114.189186,
      "pred_country": "Indonesia",
      "pred_city": "Singapore",
      "pred_street": "Jakarta",
      "pred_lat": -6.1754049,
      "pred_lon": 106.827168,
      "dist_km": 3264.1987825204824
    },
    {
      "photo_id": "5863283610",
      "gt_lat": -37.783031,
      "gt_lon": 145.576156,
      "pred_country": "United States",
      "pred_city": "New York City",
      "pred_street": "Los Angeles",
      "pred_lat": 34.0536909,
      "pred_lon": -118.242766,
      "dist_km": 12724.0386734488
    },
    {
      "photo_id": "6919870883",
      "gt_lat": 26.215602,
      "gt_lon": 127.684747,
      "pred_country": "Japan",
      "pred_city": "Tokyo, Japan",
      "pred_street": "Kyoto",
      "pred_lat": 35.0115754,
      "pred_lon": 135.7681441,
      "dist_km": 1245.9261166286797
    },
    {
      "photo_id": "5293584162",
      "gt_lat": 25.719033,
      "gt_lon": 32.656936,
      "pred_country": "Egypt",
      "pred_city": "Luxor, Egypt",
      "pred_street": "Luxor",
      "pred_lat": 25.702096,
      "pred_lon": 32.647186,
      "dist_km": 2.1215610117047
    },
    {
      "photo_id": "2113063060",
      "gt_lat": 45.646448,
      "gt_lon": -1.090393,
      "pred_country": "United States",
      "pred_city": "New York City",
      "pred_street": "Bedroom in a residential area",
      "pred_lat": 40.7127281,
      "pred_lon": -74.0060152,
      "dist_km": 5730.157810240343
    },
    {
      "photo_id": "2204203153",
      "gt_lat": 37.279747,
      "gt_lon": -79.936094,
      "pred_country": "Canada",
      "pred_city": "Montreal, Canada",
      "pred_street": "Montreal, Quebec",
      "pred_lat": 45.5031824,
      "pred_lon": -73.5698065,
      "dist_km": 1056.6133630412075
    },
    {
      "photo_id": "5150370478",
      "gt_lat": 47.607891,
      "gt_lon": -122.321487,
      "pred_country": "United States",
      "pred_city": "Los Angeles, USA",
      "pred_street": "Newborn Hospital Ward",
      "pred_lat": 34.0536909,
      "pred_lon": -118.242766,
      "dist_km": 1545.147233294834
    },
    {
      "photo_id": "11443242853",
      "gt_lat": 44.237943,
      "gt_lon": -76.503403,
      "pred_country": "United States",
      "pred_city": "New York City",
      "pred_street": "Chicago",
      "pred_lat": 41.8755616,
      "pred_lon": -87.6244212,
      "dist_km": 940.1080658368305
    },
    {
      "photo_id": "5922602279",
      "gt_lat": 35.835628,
      "gt_lon": -5.872192,
      "pred_country": "United States",
      "pred_city": "Airport in Europe",
      "pred_street": "Hillsboro, Oregon",
      "pred_lat": 45.5228939,
      "pred_lon": -122.989827,
      "dist_km": 8991.259026304142
    },
    {
      "photo_id": "3212222845",
      "gt_lat": 51.511108,
      "gt_lon": -0.149431,
      "pred_country": "United Kingdom",
      "pred_city": "London, UK",
      "pred_street": "Notting Hill, London",
      "pred_lat": 51.5109995,
      "pred_lon": -0.2055267,
      "dist_km": 3.882047490630067
    },
    {
      "photo_id": "5200094734",
      "gt_lat": 43.703374,
      "gt_lon": 7.278099,
      "pred_country": "Italy",
      "pred_city": "Capri, Italy",
      "pred_street": "Amalfi Coast, Italy",
      "pred_lat": 40.6782917,
      "pred_lon": 14.7091265,
      "dist_km": 698.1473450660156
    },
    {
      "photo_id": "368082658",
      "gt_lat": 23.281719,
      "gt_lon": -82.617187,
      "pred_country": "Colombia",
      "pred_city": "Granada, Nicaragua",
      "pred_street": "Cartagena, Colombia",
      "pred_lat": 10.4265566,
      "pred_lon": -75.5441671,
      "dist_km": 1614.536658460124
    },
    {
      "photo_id": "8813772667",
      "gt_lat": 45.700844,
      "gt_lon": 9.29203,
      "pred_country": "United States",
      "pred_city": "Los Angeles",
      "pred_street": "Los Angeles",
      "pred_lat": 34.0536909,
      "pred_lon": -118.242766,
      "dist_km": 9700.08102922324
    },
    {
      "photo_id": "5843337403",
      "gt_lat": 53.553299,
      "gt_lon": -6.783778,
      "pred_country": "United Kingdom",
      "pred_city": "London, UK",
      "pred_street": "The Braveheart 5KM 2011",
      "pred_lat": 51.5074456,
      "pred_lon": -0.1277653,
      "dist_km": 504.17635826031227
    },
    {
      "photo_id": "5275207031",
      "gt_lat": 21.87385,
      "gt_lon": -159.440631,
      "pred_country": "Hawaii, USA",
      "pred_city": "Hawaii",
      "pred_street": "Kauai, Hawaii",
      "pred_lat": 22.0503838,
      "pred_lon": -159.5588624,
      "dist_km": 23.10811980060645
    },
    {
      "photo_id": "11034422753",
      "gt_lat": 45.709251,
      "gt_lon": -121.667528,
      "pred_country": "United States",
      "pred_city": "Yosemite National Park, California",
      "pred_street": "Cascades, Oregon",
      "pred_lat": 45.5723064,
      "pred_lon": -122.5580173,
      "dist_km": 70.88334758395597
    },
    {
      "photo_id": "10173061783",
      "gt_lat": 38.903418,
      "gt_lon": -77.039301,
      "pred_country": "United States",
      "pred_city": "Washington, D.C.",
      "pred_street": "Washington, D.C.",
      "pred_lat": 38.8950982,
      "pred_lon": -77.0363849,
      "dist_km": 0.9589201503916535
    },
    {
      "photo_id": "4132612622",
      "gt_lat": 10.127737,
      "gt_lon": 76.689891,
      "pred_country": "Japan",
      "pred_city": "Seoul, South Korea",
      "pred_street": "Kyoto",
      "pred_lat": 35.0115754,
      "pred_lon": 135.7681441,
      "dist_km": 6559.250778069861
    },
    {
      "photo_id": "12485048114",
      "gt_lat": 39.458416,
      "gt_lon": -5.881428,
      "pred_country": "Spain",
      "pred_city": "Toledo, Spain",
      "pred_street": "Toledo, Spain",
      "pred_lat": 39.8558913,
      "pred_lon": -4.024265,
      "dist_km": 165.01041602095148
    },
    {
      "photo_id": "14007561583",
      "gt_lat": 32.182716,
      "gt_lon": -111.09015,
      "pred_country": "United States",
      "pred_city": "Phoenix, Arizona",
      "pred_street": "Phoenix, Arizona",
      "pred_lat": 33.4484367,
      "pred_lon": -112.074141,
      "dist_km": 168.1160141178381
    },
    {
      "photo_id": "7061995765",
      "gt_lat": 39.219722,
      "gt_lon": -121.064445,
      "pred_country": "United States",
      "pred_city": "Oregon, USA",
      "pred_street": "California, USA",
      "pred_lat": 36.7014631,
      "pred_lon": -118.755997,
      "dist_km": 345.4668284570344
    },
    {
      "photo_id": "4325565406",
      "gt_lat": 40.445379,
      "gt_lon": 116.66399,
      "pred_country": "United States",
      "pred_city": "Washington, D.C.",
      "pred_street": "Washington D.C.",
      "pred_lat": 38.8950982,
      "pred_lon": -77.0363849,
      "dist_km": 11083.746344661025
    },
    {
      "photo_id": "11653184393",
      "gt_lat": 50.822525,
      "gt_lon": 4.381697,
      "pred_country": "United States",
      "pred_city": "London",
      "pred_street": "Audio Production Studio",
      "pred_lat": 41.3749004,
      "pred_lon": -83.640746,
      "dist_km": 6458.101896938944
    },
    {
      "photo_id": "8590967122",
      "gt_lat": 52.128206,
      "gt_lon": -0.463743,
      "pred_country": "United Kingdom",
      "pred_city": "Leeds, UK",
      "pred_street": "Leeds, West Yorkshire, United Kingdom",
      "pred_lat": 53.7974185,
      "pred_lon": -1.5437941,
      "dist_km": 199.20008369792262
    },
    {
      "photo_id": "6805561503",
      "gt_lat": 58.41109,
      "gt_lon": 15.62565,
      "pred_country": "Sweden",
      "pred_city": "University of Oulu, Finland",
      "pred_street": "Uppsala, Sweden",
      "pred_lat": 59.8586126,
      "pred_lon": 17.6387436,
      "dist_km": 197.70482976118973
    },
    {
      "photo_id": "4556029047",
      "gt_lat": 42.480171,
      "gt_lon": -83.272834,
      "pred_country": "United States",
      "pred_city": "Los Angeles",
      "pred_street": "New York City",
      "pred_lat": 40.7127281,
      "pred_lon": -74.0060152,
      "dist_km": 794.7988013573213
    },
    {
      "photo_id": "4155598182",
      "gt_lat": 48.857176,
      "gt_lon": 2.340256,
      "pred_country": "France",
      "pred_city": "Paris",
      "pred_street": "Paris",
      "pred_lat": 48.8588897,
      "pred_lon": 2.320041,
      "dist_km": 1.4911178727322212
    },
    {
      "photo_id": "5480016313",
      "gt_lat": 20.892175,
      "gt_lon": -88.143998,
      "pred_country": "Mexico",
      "pred_city": "Chichen Itza, Mexico",
      "pred_street": "Chichen Itza, Mexico",
      "pred_lat": 20.6828763,
      "pred_lon": -88.5687184,
      "dist_km": 49.91055408622486
    },
    {
      "photo_id": "13723751943",
      "gt_lat": 40.424788,
      "gt_lon": -3.670828,
      "pred_country": "United States",
      "pred_city": "New York City",
      "pred_street": "New York City, USA",
      "pred_lat": 40.7127281,
      "pred_lon": -74.0060152,
      "dist_km": 5770.1669932255045
    },
    {
      "photo_id": "4206140172",
      "gt_lat": 43.05144,
      "gt_lon": -2.171602,
      "pred_country": "United States",
      "pred_city": "Los Angeles",
      "pred_street": "Los Angeles",
      "pred_lat": 34.0536909,
      "pred_lon": -118.242766,
      "dist_km": 9265.635793151361
    },
    {
      "photo_id": "2225790036",
      "gt_lat": 39.23438,
      "gt_lon": -120.079622,
      "pred_country": "United States",
      "pred_city": "Alpine Village",
      "pred_street": "Alpine Village, Colorado",
      "pred_lat": 38.3884581,
      "pred_lon": -105.1073959,
      "dist_km": 1299.181058395822
    },
    {
      "photo_id": "5746273497",
      "gt_lat": 41.903091,
      "gt_lon": 12.466328,
      "pred_country": "Italy",
      "pred_city": "Rome, Italy",
      "pred_street": "Rome, Italy",
      "pred_lat": 41.8933203,
      "pred_lon": 12.4829321,
      "dist_km": 1.7518432725092872
    },
    {
      "photo_id": "7257612220",
      "gt_lat": 38.191109,
      "gt_lon": 15.56282,
      "pred_country": "Istanbul, Turkey",
      "pred_city": "Istanbul",
      "pred_street": "Golden Horn, Istanbul",
      "pred_lat": 41.0411549,
      "pred_lon": 28.9457854,
      "dist_km": 1187.9735988566122
    },
    {
      "photo_id": "6819263632",
      "gt_lat": 51.325114,
      "gt_lon": -2.945709,
      "pred_country": "United Kingdom",
      "pred_city": "London, UK",
      "pred_street": "Royal Air Force Museum Cosford",
      "pred_lat": 52.6443319,
      "pred_lon": -2.3155198,
      "dist_km": 152.9053288485748
    },
    {
      "photo_id": "6497202921",
      "gt_lat": 7.345697,
      "gt_lon": -73.911466,
      "pred_country": "Amazon Rainforest",
      "pred_city": "Amazon River, Brazil",
      "pred_street": "Amazonas, Brazil",
      "pred_lat": -0.0685858,
      "pred_lon": -51.1010454,
      "dist_km": 2660.3934347722
    },
    {
      "photo_id": "5422443578",
      "gt_lat": 38.409546,
      "gt_lon": -8.74582,
      "pred_country": "Ireland",
      "pred_city": "Paris, France",
      "pred_street": "Cork",
      "pred_lat": 51.8985136,
      "pred_lon": -8.4726423,
      "dist_km": 1500.0548617042566
    },
    {
      "photo_id": "3946744992",
      "gt_lat": 30.491783,
      "gt_lon": -81.684851,
      "pred_country": "United States",
      "pred_city": "Los Angeles",
      "pred_street": "Los Angeles",
      "pred_lat": 34.0536909,
      "pred_lon": -118.242766,
      "dist_km": 3441.6127292999654
    },
    {
      "photo_id": "9653287226",
      "gt_lat": 55.953092,
      "gt_lon": -3.200454,
      "pred_country": "United Kingdom",
      "pred_city": "Edinburgh, Scotland",
      "pred_street": "Manchester, UK",
      "pred_lat": 53.4794892,
      "pred_lon": -2.2451148,
      "dist_km": 281.80598432250105
    },
    {
      "photo_id": "4800937451",
      "gt_lat": 53.309602,
      "gt_lon": -1.13554,
      "pred_country": "United Kingdom",
      "pred_city": "Oxford, United Kingdom",
      "pred_street": "Oxford, United Kingdom",
      "pred_lat": 51.7520131,
      "pred_lon": -1.2578499,
      "dist_km": 173.3934073645425
    },
    {
      "photo_id": "2465277674",
      "gt_lat": 33.722554,
      "gt_lon": -118.001822,
      "pred_country": "United States",
      "pred_city": "New Orleans, Louisiana",
      "pred_street": "New Orleans, Louisiana",
      "pred_lat": 29.9561422,
      "pred_lon": -90.0733934,
      "dist_km": 2662.936050399483
    },
    {
      "photo_id": "52148992",
      "gt_lat": 53.337433,
      "gt_lon": -6.328125,
      "pred_country": "United Kingdom",
      "pred_city": "London, UK",
      "pred_street": "London, UK",
      "pred_lat": 51.5074456,
      "pred_lon": -0.1277653,
      "dist_km": 466.8883383526507
    },
    {
      "photo_id": "5179772230",
      "gt_lat": 9.161987,
      "gt_lon": -79.841068,
      "pred_country": "Australia",
      "pred_city": "Rainforest, Central America",
      "pred_street": "Rainforest National Park, Queensland, Australia",
      "pred_lat": 40.7438659,
      "pred_lon": -111.874583,
      "dist_km": 4718.915139468153
    },
    {
      "photo_id": "13156905423",
      "gt_lat": 51.439569,
      "gt_lon": -116.151542,
      "pred_country": "Switzerland",
      "pred_city": "Lake Tahoe, California/Nevada",
      "pred_street": "Zermatt",
      "pred_lat": 46.0212076,
      "pred_lon": 7.749254,
      "dist_km": 7923.785316876041
    },
    {
      "photo_id": "5099847760",
      "gt_lat": 43.780823,
      "gt_lon": 4.836183,
      "pred_country": "Italy",
      "pred_city": "Santorini, Greece",
      "pred_street": "Tuscany, Italy",
      "pred_lat": 43.4586541,
      "pred_lon": 11.1389204,
      "dist_km": 508.4957417475482
    },
    {
      "photo_id": "6270776348",
      "gt_lat": 45.766855,
      "gt_lon": 4.833662,
      "pred_country": "France",
      "pred_city": "Lyon, France",
      "pred_street": "Lyon, France",
      "pred_lat": 45.7578137,
      "pred_lon": 4.8320114,
      "dist_km": 1.013467798119089
    },
    {
      "photo_id": "4718871884",
      "gt_lat": 50.689715,
      "gt_lon": -1.960973,
      "pred_country": "United Kingdom",
      "pred_city": "London, UK",
      "pred_street": "St. Mary's Church, Bury St. Edmunds",
      "pred_lat": 52.3355771,
      "pred_lon": 0.5185711,
      "dist_km": 250.84071290920883
    },
    {
      "photo_id": "7752218862",
      "gt_lat": 51.543839,
      "gt_lon": -0.015234,
      "pred_country": "London, United Kingdom",
      "pred_city": "London, UK",
      "pred_street": "London Olympic Park",
      "pred_lat": 51.54496,
      "pred_lon": -0.0171772,
      "dist_km": 0.1832893464091826
    },
    {
      "photo_id": "2580719887",
      "gt_lat": 53.957297,
      "gt_lon": -1.085243,
      "pred_country": "United Kingdom",
      "pred_city": "York, United Kingdom",
      "pred_street": "York Minster, York, United Kingdom",
      "pred_lat": 53.9623561,
      "pred_lon": -1.0820834,
      "dist_km": 0.5993212420392218
    },
    {
      "photo_id": "12120228076",
      "gt_lat": 61.066639,
      "gt_lon": 28.101732,
      "pred_country": "Finland",
      "pred_city": "Finland",
      "pred_street": "Kuusamo",
      "pred_lat": 65.9645637,
      "pred_lon": 29.1883283,
      "dist_km": 547.2620592782972
    },
    {
      "photo_id": "3866589063",
      "gt_lat": 48.860028,
      "gt_lon": 2.290649,
      "pred_country": "France",
      "pred_city": "Paris, France",
      "pred_street": "Seine River, Paris, France",
      "pred_lat": 48.8525768,
      "pred_lon": 2.3578407,
      "dist_km": 4.985124195561119
    },
    {
      "photo_id": "8321735195",
      "gt_lat": 51.473264,
      "gt_lon": -3.203512,
      "pred_country": "Germany",
      "pred_city": "Manchester, England",
      "pred_street": "Munich",
      "pred_lat": 48.1371079,
      "pred_lon": 11.5753822,
      "dist_km": 1121.2370720150946
    },
    {
      "photo_id": "12922766464",
      "gt_lat": 28.607156,
      "gt_lon": 77.205982,
      "pred_country": "India",
      "pred_city": "New Delhi, India",
      "pred_street": "Jaipur, Rajasthan, India",
      "pred_lat": 26.9154576,
      "pred_lon": 75.8189817,
      "dist_km": 232.39518141812223
    },
    {
      "photo_id": "4618626157",
      "gt_lat": 37.773598,
      "gt_lon": -122.44194,
      "pred_country": "Australia",
      "pred_city": "Sydney, Australia",
      "pred_street": "Sydney, Australia",
      "pred_lat": -33.8698439,
      "pred_lon": 151.2082848,
      "dist_km": 11946.01085671071
    },
    {
      "photo_id": "8264009534",
      "gt_lat": 35.701129,
      "gt_lon": 139.57129,
      "pred_country": "Japan",
      "pred_city": "Seoul, South Korea",
      "pred_street": "Tokyo",
      "pred_lat": 35.6768601,
      "pred_lon": 139.7638947,
      "dist_km": 17.602601926068665
    },
    {
      "photo_id": "5759000681",
      "gt_lat": 52.116803,
      "gt_lon": 4.284249,
      "pred_country": "United Kingdom",
      "pred_city": "Cape Cod, Massachusetts",
      "pred_street": "Seaside town in the UK",
      "pred_lat": 41.7987588,
      "pred_lon": -69.9960655,
      "dist_km": 5498.835725758484
    },
    {
      "photo_id": "3396632918",
      "gt_lat": 50.931475,
      "gt_lon": 6.964484,
      "pred_country": "United States",
      "pred_city": "London",
      "pred_street": "New York City, USA",
      "pred_lat": 40.7127281,
      "pred_lon": -74.0060152,
      "dist_km": 6054.742178287973
    },
    {
      "photo_id": "2056254108",
      "gt_lat": -22.950608,
      "gt_lon": -43.158631,
      "pred_country": "Brazil",
      "pred_city": "Rio de Janeiro, Brazil",
      "pred_street": "Sugarloaf Mountain, Rio de Janeiro, Brazil",
      "pred_lat": -22.9494891,
      "pred_lon": -43.1561568,
      "dist_km": 0.2822432817642528
    },
    {
      "photo_id": "8550280937",
      "gt_lat": 39.151919,
      "gt_lon": -0.441214,
      "pred_country": "Spain",
      "pred_city": "Alzira, Spain",
      "pred_street": "Alzira, Spain",
      "pred_lat": 39.151212,
      "pred_lon": -0.4346556,
      "dist_km": 0.5709641194953412
    },
    {
      "photo_id": "2129515738",
      "gt_lat": 47.386927,
      "gt_lon": 9.392736,
      "pred_country": "United States",
      "pred_city": "London",
      "pred_street": "Chicago, United States",
      "pred_lat": 41.8755616,
      "pred_lon": -87.6244212,
      "dist_km": 7178.03934745581
    },
    {
      "photo_id": "6240428053",
      "gt_lat": 48.863077,
      "gt_lon": 2.328894,
      "pred_country": "France",
      "pred_city": "Paris, France",
      "pred_street": "Arc de Triomphe, Paris",
      "pred_lat": 48.8737791,
      "pred_lon": 2.2950372,
      "dist_km": 2.747477922633399
    },
    {
      "photo_id": "6059347516",
      "gt_lat": 39.257048,
      "gt_lon": -84.472966,
      "pred_country": "Canada",
      "pred_city": "Chicago, USA",
      "pred_street": "Alberta, Canada",
      "pred_lat": 55.001251,
      "pred_lon": -115.002136,
      "dist_km": 2860.0839987551885
    },
    {
      "photo_id": "9177751795",
      "gt_lat": 40.577561,
      "gt_lon": -105.089024,
      "pred_country": "United States",
      "pred_city": "Miami, Florida",
      "pred_street": "Los Angeles, California",
      "pred_lat": 34.0536909,
      "pred_lon": -118.242766,
      "dist_km": 1368.6349234635552
    },
    {
      "photo_id": "8192322308",
      "gt_lat": 48.299404,
      "gt_lon": 14.291267,
      "pred_country": "Vienna, Austria",
      "pred_city": "Vienna, Austria",
      "pred_street": "Sch\u00f6nbrunn Palace Ballroom, Vienna",
      "pred_lat": 48.2083537,
      "pred_lon": 16.3725042,
      "dist_km": 154.41612207775765
    },